id,fecha,franja_hora,gravedad,sexo,edad,vehiculo_1,vehiculo_2,direccion_normalizada,tipo_calle,comuna,latitud,longitud
2016-0001,2016-01-01,4,FATAL,M,19,MOTO,AUTOMOVIL,"PIEDRA BUENA AV. y FERNANDEZ DE LA CRUZ, F., GRAL. AV.",AVENIDA,8,-34.68757022,-58.47533969
2016-0002,2016-01-02,1,FATAL,M,70,AUTOMOVIL,TRANSPORTE PUBLICO,"PAZ, GRAL. AV. y DE LOS CORRALES AV.",GRAL PAZ,9,-34.66977709,-58.50877521
2016-0003,2016-01-03,7,FATAL,M,30,MOTO,AUTOMOVIL,ENTRE RIOS AV. 2034,AVENIDA,1,-34.63189362,-58.39040293
2016-0004,2016-01-10,0,LEVE - SIN LESIONES,M,18,MOTO,SD,"LARRAZABAL AV. y VILLEGAS, CONRADO, GRAL.",AVENIDA,8,-34.68092974,-58.46503904
2016-0005,2016-01-21,5,FATAL,M,29,MOTO,TRANSPORTE PUBLICO,"SAN JUAN AV. y SAENZ PEÃ‘A, LUIS, PRES.",AVENIDA,1,-34.62246630,-58.38718297
2016-0008,2016-01-24,18,FATAL,M,30,MOTO,OTRO,27 DE FEBRERO AV. y ESCALADA AV.,AVENIDA,8,-34.68475866,-58.44451316
2016-0009,2016-01-24,19,FATAL,M,29,MOTO,AUTOMOVIL,"NOGOYA y GONZALEZ, JOAQUIN V.",CALLE,11,-34.60825440,-58.50095869
2016-0010,2016-01-29,15,FATAL,M,18,MOTO,AUTOMOVIL,"PAZ, GRAL. AV. y DE LOS CORRALES AV.",GRAL PAZ,9,-34.66977709,-58.50877521
2016-0012,2016-02-08,1,FATAL,M,22,MOTO,TRANSPORTE PUBLICO,"BELGRANO AV. e IRIGOYEN, BERNARDO DE",AVENIDA,1,-34.61303893,-58.38048577
2016-0013,2016-02-10,11,FATAL,M,16,PEATON,AUTOMOVIL,ENTRE RIOS AV. 1366,AVENIDA,1,-34.62477387,-58.39114932
2016-0015,2016-02-14,5,FATAL,F,16,PEATON,AUTOMOVIL,"SCALABRINI ORTIZ, RAUL AV. y VERA",AVENIDA,15,-34.59912758,-58.43760020
2016-0016,2016-02-14,22,FATAL,F,19,MOTO,AUTOMOVIL,"REGIMIENTO DE PATRICIOS AV. y QUINQUELA MARTIN, BENITO",AVENIDA,4,-34.64291993,-58.36882665
2016-0017,2016-02-15,16,FATAL,M,59,PEATON,MOTO,"ACOSTA, MARIANO y JANER, ANA MARIA",AVENIDA,8,-34.65970435,-58.44989671
2016-0019,2016-02-17,9,FATAL,F,65,PEATON,TRANSPORTE PUBLICO,"DE LA TORRE, LISANDRO y GARCIA GRANDE DE ZEQUEIRA, SEVERO",CALLE,9,-34.65468721,-58.50990884
2016-0020,2016-02-17,16,FATAL,M,59,PEATON,AUTOMOVIL,SUIPACHA 156,CALLE,1,-34.60653282,-58.37952223
2016-0021,2016-02-17,23,FATAL,M,34,AUTOMOVIL,AUTOMOVIL,DIRECTORIO AV. y CURAPALIGUE,AVENIDA,7,-34.63063795,-58.45157703
2016-0022,2016-02-21,6,LEVE - SIN LESIONES,M,41,MOTO,AUTOMOVIL,"9 DE JULIO AV. y ALSINA, ADOLFO",AVENIDA,1,-34.61079875,-58.38144696
2016-0025,2016-02-28,4,FATAL,M,34,AUTOMOVIL,AUTOMOVIL,"PAZ, GRAL. AV. y 27 DE FEBRERO AV.",GRAL PAZ,8,-34.70524971,-58.46244952
2016-0026,2016-02-28,7,FATAL,M,30,AUTOMOVIL,OTRO,HOLMBERG y VEDIA,CALLE,12,-34.54738649,-58.49216191
2016-0027,2016-02-28,9,LEVE - SIN LESIONES,M,34,AUTOMOVIL,AUTOMOVIL,"CURAPALIGUE AV. y DIAZ, AVELINO",AVENIDA,7,-34.63852623,-58.44497874
2016-0028,2016-03-02,10,FATAL,M,50,PEATON,TRANSPORTE PUBLICO,VIAMONTE y 9 DE JULIO AV.,AVENIDA,1,-34.60028648,-58.38199706
2016-0029,2016-03-04,17,FATAL,M,38,PEATON,TRANSPORTE PUBLICO,CABILDO AV. y DEHEZA,AVENIDA,12,-34.54153077,-58.47378664
2016-0031,2016-03-08,12,LEVE - SIN LESIONES,M,21,MOTO,TRANSPORTE PUBLICO,"PAZ, GRAL. AV. y ROCA, CNEL. AV.",GRAL PAZ,8,-34.69843756,-58.47064556
2016-0034,2016-03-12,12,FATAL,M,52,PEATON,TRANSPORTE PUBLICO,"ALCORTA, AMANCIO AV. y BONAVENA, OSCAR NATALIO",AVENIDA,4,-34.65076549,-58.40623949
2016-0035,2016-03-13,6,FATAL,M,34,MOTO,TRANSPORTE PUBLICO,CORRIENTES AV. y CALLAO AV.,AVENIDA,3,-34.60443527,-58.39228965
2016-0036,2016-03-14,0,FATAL,M,36,MOTO,TRANSPORTE PUBLICO,"HERRERA y VALLE, ARISTOBULO DEL",CALLE,4,-34.63668504,-58.37813396
2016-0037,2016-03-19,11,FATAL,M,20,MOTO,MOTO,LAFUENTE AV. y QUIRNO,AVENIDA,7,-34.64358293,-58.46275892
2016-0038,2016-03-21,8,FATAL,M,29,PEATON,TRANSPORTE PUBLICO,"PAZ, GRAL. AV. y ZUVIRIA",GRAL PAZ,8,-34.67892743,-58.49683458
2016-0039,2016-03-23,1,FATAL,M,20,MOTO,TRANSPORTE PUBLICO,"MITRE, BARTOLOME y PUEYRREDON AV.",AVENIDA,3,-34.60883960,-58.40603217
2016-0041,2016-03-29,11,FATAL,M,54,MOTO,TRANSPORTE PUBLICO,DIRECTORIO AV. y RIVERA INDARTE AV.,AVENIDA,7,-34.63350444,-58.46076550
2016-0041,2016-03-29,11,FATAL,M,47,MOTO,TRANSPORTE PUBLICO,DIRECTORIO AV. y RIVERA INDARTE AV.,AVENIDA,7,-34.63350444,-58.46076550
2016-0043,2016-03-30,18,FATAL,F,56,PEATON,TRANSPORTE PUBLICO,"DELLEPIANE, LUIS, TTE. GRAL. y MURGUIONDO",AVENIDA,8,-34.67494416,-58.47832463
2016-0044,2016-03-31,19,FATAL,M,24,MOTO,OTRO,"MORENO, JOSE MARIA AV. y BALBASTRO",AVENIDA,7,-34.63693953,-58.43213235
2016-0045,2016-04-11,10,LEVE - SIN LESIONES,M,34,MOTO,SD,"PAZ, GRAL. AV. y DEL LIBERTADOR AV.",GRAL PAZ,13,-34.53476874,-58.46743471
2016-0047,2016-04-15,5,FATAL,M,41,PEATON,TRANSPORTE PUBLICO,LIMA 1483,CALLE,1,-34.62571878,-58.38247061
2016-0048,2016-04-15,17,LEVE - SIN LESIONES,F,24,PEATON,TRANSPORTE PUBLICO,CORRIENTES AV. y DORREGO AV.,AVENIDA,15,-34.59170240,-58.44759966
2016-0049,2016-04-17,0,LEVE - SIN LESIONES,M,41,SD,SD,AUTOPISTA 1 SUR PRESIDENTE ARTURO FRONDIZI,AUTOPISTA,4,-34.63657525428238,-58.37714647568196
2016-0050,2016-04-19,9,FATAL,M,78,PEATON,TRANSPORTE PUBLICO,"GORDILLO, TIMOTEO y FERNANDEZ DE LA CRUZ, F., GRAL. AV.",AVENIDA,8,-34.68550712,-58.47305463
2016-0051,2016-04-20,4,FATAL,M,36,MOTO,TRANSPORTE PUBLICO,"ALCORTA, AMANCIO AV. y BONAVENA, OSCAR NATALIO",AVENIDA,4,-34.65076549,-58.40623949
2016-0052,2016-04-20,20,LEVE - SIN LESIONES,M,30,MOTO,SD,SD,AUTOPISTA,13,.,.
2016-0053,2016-04-22,9,FATAL,M,38,PEATON,TRANSPORTE PUBLICO,TRIUNVIRATO AV. y OLAZABAL AV.,AVENIDA,12,-34.57558053,-58.48429180
2016-0054,2016-04-23,21,FATAL,M,30,MOTO,MOTO,"AUTOPISTA DELLEPIANE LUIS TTE. GRAL. y PAZ, GRAL. AV.",AUTOPISTA,8,-34.68795245,-58.48695354
2016-0055,2016-04-25,20,FATAL,M,79,PEATON,TRANSPORTE PUBLICO,"CASTILLA, RAMON, MARISCAL y FIGUEROA ALCORTA, PRES. AV.",AVENIDA,14,-34.57964781,-58.40021959
2016-0056,2016-04-26,4,FATAL,M,26,MOTO,OTRO,"CAMPOS, LUIS M. AV. 30",AVENIDA,14,-34.57660058,-58.42957885
2016-0058,2016-05-04,14,FATAL,F,57,PEATON,MOTO,LIMA 1471,CALLE,1,-34.62556293,-58.38247542
2016-0059,2016-05-08,16,FATAL,M,37,PEATON,TRANSPORTE PUBLICO,CIUDADELA y LIMA,CALLE,1,-34.62728101,-58.38222219
2016-0064,2016-05-14,18,LEVE - SIN LESIONES,M,20,PEATON,TRANSPORTE PUBLICO,"JUSTO, JUAN B. AV. y CARRASCO AV.",AVENIDA,10,-34.62953445,-58.49485242
2016-0065,2016-05-20,14,FATAL,M,20,PEATON,AUTOMOVIL,GAONA AV. y ESPINOSA,AVENIDA,6,-34.61068024,-58.45227946
2016-0067,2016-05-21,17,LEVE - SIN LESIONES,F,30,MOTO,TRANSPORTE PUBLICO,"DE LA TORRE, LISANDRO y SARAZA",AVENIDA,8,-34.67512760,-58.48455411
2016-0068,2016-05-22,22,LEVE - SIN LESIONES,M,58,MOTO,TRANSPORTE PUBLICO,"FIGUEROA ALCORTA, PRES. AV. y PUEYRREDON AV.",AVENIDA,2,-34.58418569,-58.39056593
2016-0069,2016-05-23,3,FATAL,M,30,AUTOMOVIL,TRANSPORTE PUBLICO,ENTRE RIOS AV. y FILIBERTO,AVENIDA,3,-34.62704273,-58.39118948
2016-0073,2016-06-11,15,LEVE - SIN LESIONES,M,23,MOTO,TRANSPORTE PUBLICO,"MAGARIÃ‘OS CERVANTES, A. 3900",CALLE,10,-34.62025108,-58.49021952
2016-0074,2016-06-12,6,LEVE - SIN LESIONES,M,60,AUTOMOVIL,AUTOMOVIL,"PAZ, GRAL. AV. y SCAPINO, RODOLFO",GRAL PAZ,8,-34.67732118,-58.49896559
2016-0075,2016-06-12,23,FATAL,M,42,PEATON,AUTOMOVIL,AUTOPISTA DELLEPIANE LUIS TTE. GRAL. y MIRALLA,AUTOPISTA,8,-34.66874679,-58.47461076
2016-0076,2016-06-13,16,FATAL,F,53,PEATON,TRANSPORTE PUBLICO,SAN MARTIN AV. y CAMARONES,AVENIDA,15,-34.60356211,-58.46210891
2016-0077,2016-06-13,21,LEVE - SIN LESIONES,F,26,PEATON,TRANSPORTE PUBLICO,"PERON, JUAN DOMINGO, TTE. GENERAL y ALEM, LEANDRO N. AV.",AVENIDA,1,-34.60536123,-58.37027770
2016-0078,2016-06-13,23,LEVE - SIN LESIONES,M,30,MOTO,MOTO,BELGRANO AV. y JUJUY AV.,AVENIDA,3,-34.61463830,-58.40491455
2016-0079,2016-06-16,17,LEVE - SIN LESIONES,F,51,AUTOMOVIL,AUTOMOVIL,"DEL LIBERTADOR AV. y UDAONDO, GUILLERMO AV.",AVENIDA,13,-34.54864492,-58.45504154
2016-0080,2016-06-18,6,LEVE - SIN LESIONES,M,60,AUTOMOVIL,SD,"PAZ, GRAL. AV. y RIVADAVIA AV.",GRAL PAZ,9,-34.63931752,-58.52927982
2016-0081,2016-06-22,7,LEVE - SIN LESIONES,M,40,MOTO,AUTOMOVIL,"LARRALDE, CRISOLOGO AV. y MACHAIN",AVENIDA,12,-34.55904606,-58.48721060
2016-0082,2016-06-27,18,FATAL,M,87,PEATON,AUTOMOVIL,LA PLATA AV. 2384,AVENIDA,4,-34.64228803,-58.42273092
2016-0083,2016-06-28,20,FATAL,F,76,PEATON,MOTO,"ALBERDI, JUAN BAUTISTA AV. y PUAN",AVENIDA,6,-34.62539009,-58.44788671
2016-0084,2016-06-29,22,FATAL,M,57,PEATON,TRANSPORTE PUBLICO,"PELLEGRINI, CARLOS y TUCUMAN",CALLE,1,-34.60135531,-58.38110563
2016-0085,2016-06-29,22,LEVE - SIN LESIONES,M,26,MOTO,OTRO,"RABANAL, FRANCISCO, INTENDENTE AV. y EREZCANO",AVENIDA,4,-34.65734100,-58.42378834
2016-0086,2016-06-30,16,FATAL,M,75,PEATON,TRANSPORTE PUBLICO,"OLIVERA AV. y FALCON, RAMON L.,CNEL.",AVENIDA,10,-34.63652467,-58.48727942
2016-0087,2016-07-02,0,FATAL,M,23,MOTO,OTRO,AUTOPISTA 1 SUR PRESIDENTE ARTURO FRONDIZI y CASEROS AV.,AUTOPISTA,1,-34.62907067,-58.37864583
2016-0088,2016-07-11,15,FATAL,F,70,PEATON,AUTOMOVIL,CERETTI y NUÃ‘EZ,CALLE,12,-34.56767549,-58.50151750
2016-0089,2016-07-14,6,FATAL,M,35,PEATON,AUTOMOVIL,"LUGONES, LEOPOLDO AV. y LA PAMPA",AUTOPISTA,13,-34.55185825,-58.43233425
2016-0090,2016-07-14,22,FATAL,M,60,PEATON,TRANSPORTE PUBLICO,"SALGUERO, JERONIMO y RIVADAVIA AV.",AVENIDA,5,-34.61112240,-58.41971993
2016-0092,2016-07-15,11,FATAL,M,24,MOTO,TRANSPORTE PUBLICO,"PAZ, GRAL. AV. y DEL LIBERTADOR AV.",GRAL PAZ,13,-34.53476874,-58.46743471
2016-0093,2016-07-17,3,FATAL,M,35,AUTOMOVIL,AUTOMOVIL,"ALBERDI, JUAN BAUTISTA AV. y MITRE, EMILIO",AVENIDA,6,-34.62301748,-58.44362126
2016-0095,2016-07-23,6,FATAL,M,29,MOTO,AUTOMOVIL,MERCEDES y MOSCONI GENERAL AV.,AVENIDA,11,-34.59546519,-58.51713095
2016-0096,2016-07-25,7,LEVE - SIN LESIONES,M,29,MOTO,TRANSPORTE PUBLICO,AUTOPISTA DELLEPIANE LUIS TTE. GRAL.,AUTOPISTA,8,-34.66684950051973,-58.47433193007387
2016-0097,2016-07-26,18,FATAL,M,80,PEATON,AUTOMOVIL,SOLIS y MEXICO,CALLE,1,-34.61562810,-58.39038605
2016-0098,2016-07-27,16,LEVE - SIN LESIONES,F,43,MOTO,TRANSPORTE PUBLICO,SAN JUAN AV. y ALBERTI,AVENIDA,3,-34.62356174,-58.40042405
2016-0099,2016-07-29,16,LEVE - SIN LESIONES,M,45,TRANSPORTE PUBLICO,TRANSPORTE PUBLICO,"MOSCONI GENERAL AV. y PAZ, GRAL. AV.",GRAL PAZ,11,-34.59798754,-58.52340614
2016-0100,2016-08-03,23,FATAL,M,57,MOTO,OTRO,"PAZ, GRAL. AV. y DONADO",GRAL PAZ,12,-34.54795581,-58.49491054
2016-0101,2016-08-07,19,LEVE - SIN LESIONES,M,67,SD,SD,"PAZ, GRAL. AV. y CHAVEZ, JORGE",GRAL PAZ,9,-34.65014993,-58.52932872
2016-0102,2016-08-10,23,LEVE - SIN LESIONES,M,29,MOTO,TRANSPORTE PUBLICO,"PERON, EVA AV. y SUAREZ, JOSE LEON",AVENIDA,9,-34.67316502,-58.50011639
2016-0104,2016-08-14,21,FATAL,M,21,MOTO,TRANSPORTE PUBLICO,ZINNY y SANTIAGO DE COMPOSTELA AV.,AVENIDA,9,-34.65624369,-58.46635001
2016-0105,2016-08-17,0,FATAL,M,19,PEATON,TRANSPORTE PUBLICO,"LACROZE, FEDERICO AV. y FRAGA",AVENIDA,15,-34.58435809,-58.45343236
2016-0106,2016-08-19,21,LEVE - SIN LESIONES,M,38,PEATON,TRANSPORTE PUBLICO,"PELLEGRINI, CARLOS y DEL LIBERTADOR AV.",AVENIDA,1,-34.58927731,-58.38090932
2016-0107,2016-08-20,8,LEVE - SIN LESIONES,M,21,MOTO,AUTOMOVIL,AUTOPISTA 1 SUR PRESIDENTE ARTURO FRONDIZI y DON PEDRO DE MENDOZA AV.,AUTOPISTA,4,-34.65429986,-58.37157668
2016-0109,2016-08-24,5,FATAL,F,53,AUTOMOVIL,OTRO,AUTOPISTA PERITO MORENO y BARRAGAN,AUTOPISTA,9,-34.63659934,-58.52280139
2016-0110,2016-08-24,20,LEVE - SIN LESIONES,M,57,PEATON,SD,"ALBERDI, JUAN BAUTISTA AV. y CARHUE",AVENIDA,9,-34.65903530,-58.51232237
2016-0111,2016-08-25,9,FATAL,M,27,MOTO,TRANSPORTE PUBLICO,LUGONES y LA PAMPA,AUTOPISTA,15,-34.57663634,-58.47461905
2016-0112,2016-08-27,4,FATAL,M,24,MOTO,OTRO,AUTOPISTA 25 DE MAYO y AUTOPISTA 1 SUR PRESIDENTE ARTURO FRONDIZI,AUTOPISTA,1,-34.62282019,-58.38268809
2016-0113,2016-08-27,16,LEVE - SIN LESIONES,F,60,PEATON,TRANSPORTE PUBLICO,"ALBERDI, JUAN BAUTISTA AV. y GUARDIA NACIONAL",AVENIDA,9,-34.64564271,-58.49603546
2016-0114,2016-08-31,11,FATAL,F,55,BICICLETA,TRANSPORTE PUBLICO,"SALGUERO, JERONIMO 1410",CALLE,14,-34.59394733,-58.41848605
2016-0115,2016-09-02,11,LEVE - SIN LESIONES,M,36,SD,TRANSPORTE PUBLICO,ARIAS y TRONADOR,CALLE,12,-34.54917673,-58.48935041
2016-0116,2016-09-02,20,FATAL,M,30,MOTO,AUTOMOVIL,27 DE FEBRERO AV. y ESCALADA AV.,AVENIDA,8,-34.68475866,-58.44451316
2016-0117,2016-09-03,15,LEVE - SIN LESIONES,M,43,AUTOMOVIL,AUTOMOVIL,DEL LIBERTADOR AV. y TAGLE,AVENIDA,14,-34.58271474,-58.39936478
2016-0118,2016-09-04,3,FATAL,M,27,AUTOMOVIL,AUTOMOVIL,AUTOPISTA 1 SUR PRESIDENTE ARTURO FRONDIZI KM. 2.9,AUTOPISTA,1,-34.62694503,-58.37936704
2016-0119,2016-09-04,6,LEVE - SIN LESIONES,F,29,SD,SD,"LARRALDE, CRISOLOGO AV. y TRIUNVIRATO AV.",AVENIDA,12,-34.56353635,-58.49659234
2016-0122,2016-09-13,7,FATAL,M,49,BICICLETA,TRANSPORTE PUBLICO,"PERON, EVA AV. 4233",AVENIDA,9,-34.65194557,-58.47256391
2016-0123,2016-09-14,9,LEVE - SIN LESIONES,F,58,MOTO,AUTOMOVIL,"ASAMBLEA AV. y BONORINO, ESTEBAN, CNEL. AV.",AVENIDA,7,-34.64053676,-58.45130953
2016-0124,2016-09-16,15,LEVE - SIN LESIONES,M,67,PEATON,TRANSPORTE PUBLICO,RIVADAVIA AV. y RIVERA INDARTE AV.,AVENIDA,7,-34.62884871,-58.46271207
2016-0125,2016-09-17,12,LEVE - SIN LESIONES,M,30,MOTO,MOTO,"AUTOPISTA PERITO MORENO y ALBERDI, JUAN BAUTISTA AV.",AUTOPISTA,10,-34.64243791,-58.49020869
2016-0126,2016-09-18,22,LEVE - SIN LESIONES,M,37,AUTOMOVIL,TRANSPORTE PUBLICO,IRIGOYEN y TINOGASTA,CALLE,10,-34.62125906,-58.52572109
2016-0126,2016-09-18,22,LEVE - SIN LESIONES,M,60,AUTOMOVIL,TRANSPORTE PUBLICO,IRIGOYEN y TINOGASTA,CALLE,10,-34.62125906,-58.52572109
2016-0127,2016-09-24,10,LEVE - SIN LESIONES,M,50,PEATON,TRANSPORTE PUBLICO,"ACOSTA, MARIANO y ROCA, CNEL. AV.",AVENIDA,8,-34.66677111,-58.44094791
2016-0128,2016-10-02,11,FATAL,F,81,PEATON,TRANSPORTE PUBLICO,CASTRO y PAVON AV.,AVENIDA,5,-34.63053890,-58.41914024
2016-0130,2016-10-04,12,FATAL,M,29,MOTO,TRANSPORTE PUBLICO,AUTOPISTA 1 SUR PRESIDENTE ARTURO FRONDIZI y BRASIL,AUTOPISTA,1,-34.62764717,-58.37910942
2016-0131,2016-10-09,19,LEVE - SIN LESIONES,M,35,PEATON,AUTOMOVIL,MIRAVE 3500,CALLE,4,-34.64539318,-58.39871183
2016-0132,2016-10-10,2,FATAL,M,30,AUTOMOVIL,TRANSPORTE PUBLICO,SAN JUAN AV. y 24 DE NOVIEMBRE,AVENIDA,3,-34.62477021,-58.41036975
2016-0133,2016-10-14,0,FATAL,M,41,MOTO,AUTOMOVIL,LAS HERAS GENERAL AV. y SANCHEZ DE BUSTAMANTE,AVENIDA,14,-34.58342690,-58.40204698
2016-0134,2016-10-23,5,FATAL,M,25,MOTO,OTRO,PIEDRA BUENA AV. y 2 DE ABRIL DE 1982,AVENIDA,8,-34.67648597,-58.48935287
2016-0135,2016-10-24,5,FATAL,M,29,PEATON,SD,"FIGUEROA ALCORTA, PRES. AV. y PINEDO, INT.",AVENIDA,14,-34.56403694,-58.42260225
2016-0136,2016-10-25,0,LEVE - SIN LESIONES,M,31,MOTO,TRANSPORTE PUBLICO,SD,AUTOPISTA,4,.,.
2016-0137,2016-10-25,0,LEVE - SIN LESIONES,M,30,MOTO,MOTO,SAN MARTIN AV. y LADINES,AVENIDA,11,-34.59035925,-58.51537091
2016-0138,2016-10-27,20,LEVE - SIN LESIONES,F,33,BICICLETA,TRANSPORTE PUBLICO,CABILDO AV. y BLANCO ENCALADA,AVENIDA,13,-34.55922742,-58.45909670
2016-0139,2016-10-28,23,LEVE - SIN LESIONES,F,35,MOTO,MOTO,"FIGUEROA ALCORTA, PRES. AV. y DORREGO AV.",AVENIDA,14,-34.56539579,-58.42008769
2016-0140,2016-10-31,2,LEVE - SIN LESIONES,M,20,TRANSPORTE PUBLICO,TRANSPORTE PUBLICO,JURAMENTO AV. y VUELTA DE OBLIGADO,AVENIDA,13,-34.56147293,-58.45566399
2016-0142,2016-11-05,23,FATAL,M,46,MOTO,TRANSPORTE PUBLICO,"DEL LIBERTADOR AV. y RAMOS MEJIA, JOSE MARIA, DR. AV.",AVENIDA,1,-34.59276462,-58.37533517
2016-0143,2016-11-06,4,LEVE - SIN LESIONES,M,35,MOTO,SD,27 DE FEBRERO AV. y ESCALADA AV.,AVENIDA,8,-34.68475866,-58.44451316
2016-0144,2016-11-07,12,LEVE - SIN LESIONES,M,83,PEATON,TRANSPORTE PUBLICO,"BROWN, ALTE. AV. 984",AVENIDA,4,-34.63343907,-58.35975012
2016-0145,2016-11-07,20,FATAL,M,39,MOTO,AUTOMOVIL,DEL LIBERTADOR AV. y LA PAMPA,AVENIDA,13,-34.55953855,-58.44523595
2016-0146,2016-11-09,20,LEVE - SIN LESIONES,F,29,PEATON,TRANSPORTE PUBLICO,PICHINCHA AV. y BRASIL,AVENIDA,4,-34.63036565,-58.39626094
2016-0147,2016-11-16,21,FATAL,M,55,AUTOMOVIL,TRANSPORTE PUBLICO,"INDEPENDENCIA AV. y CEVALLOS, VIRREY",AVENIDA,1,-34.61799615,-58.38896772
2016-0148,2016-11-16,22,LEVE - SIN LESIONES,M,23,MOTO,MOTO,GARMENDIA AV. 4895,AVENIDA,15,-34.59484504,-58.46536113
2016-0150,2016-11-18,18,FATAL,M,41,TRANSPORTE PUBLICO,TRANSPORTE PUBLICO,"ALCORTA, AMANCIO AV. y TABORDA, DIOGENES",AVENIDA,4,-34.65273216,-58.40879146
2016-0151,2016-11-18,20,LEVE - SIN LESIONES,M,48,PEATON,SD,SD,CALLE,SD,.,.
2016-0152,2016-11-23,21,FATAL,M,42,MOTO,AUTOMOVIL,"MORENO, PERITO AV. y ZUVIRIA",AVENIDA,7,-34.64991946,-58.46451841
2016-0153,2016-11-25,15,FATAL,F,83,PEATON,MOTO,ARAOZ y CORDOBA AV.,AVENIDA,15,-34.59485488,-58.42917090
2016-0154,2016-11-26,14,LEVE - SIN LESIONES,M,38,MOTO,MOTO,"PAZ, GRAL. AV. 15200",GRAL PAZ,8,-34.68251141,-58.49007772
2016-0155,2016-11-26,16,LEVE - SIN LESIONES,F,29,PEATON,AUTOMOVIL,MADERO 900,CALLE,10,-34.62772274,-58.52756365
2016-0156,2016-11-26,19,FATAL,M,23,MOTO,TRANSPORTE PUBLICO,INDEPENDENCIA AV. y DEAN FUNES,AVENIDA,3,-34.61943202,-58.40638983
2016-0157,2016-12-03,6,LEVE - SIN LESIONES,M,23,MOTO,MOTO,"JUSTO, JUAN B. AV. 5645",AVENIDA,11,-34.61740997,-58.47576807
2016-0159,2016-12-04,7,LEVE - SIN LESIONES,M,23,AUTOMOVIL,SD,27 DE FEBRERO AV. y ESCALADA AV.,AVENIDA,8,-34.68475866,-58.44451316
2016-0160,2016-12-06,5,FATAL,M,29,TRANSPORTE PUBLICO,OTRO,AUTOPISTA PERITO MORENO (ALTURA VELEZ SARSFIELD),AUTOPISTA,9,-34.63635787,-58.51927194
2016-0161,2016-12-06,7,FATAL,M,50,PEATON,TRANSPORTE PUBLICO,SANTA FE AV. y GODOY CRUZ,AVENIDA,14,-34.57866344,-58.42525456
2016-0162,2016-12-07,5,FATAL,M,38,PEATON,AUTOMOVIL,"LACROZE, FEDERICO AV. y FOREST AV.",AVENIDA,15,-34.58518167,-58.45396573
2016-0163,2016-12-10,7,LEVE - SIN LESIONES,M,23,MOTO,AUTOMOVIL,"PAZ, GRAL. AV. y MOSCONI GENERAL AV.",GRAL PAZ,11,-34.59798754,-58.52340614
2016-0164,2016-12-11,6,LEVE - SIN LESIONES,M,29,AUTOMOVIL,AUTOMOVIL,"LA PLATA AV. y POMAR, GREGORIO TTE. CNEL.",AVENIDA,4,-34.64119105,-58.42323628
2016-0165,2016-12-12,8,LEVE - SIN LESIONES,M,37,BICICLETA,TRANSPORTE PUBLICO,"GARCIA, MARTIN AV. 300",AVENIDA,4,-34.62841919,-58.36926144
2016-0168,2016-12-13,10,FATAL,M,43,MOTO,AUTOMOVIL,"LA PLATA AV. y POMAR, GREGORIO TTE. CNEL.",AVENIDA,4,-34.64119105,-58.42323628
2016-0169,2016-12-15,15,FATAL,M,24,MOTO,TRANSPORTE PUBLICO,"NUÃ‘EZ y BALBIN, RICARDO, DR. AV.",AVENIDA,12,-34.55676497,-58.47935434
2016-0170,2016-12-19,17,FATAL,M,21,MOTO,AUTOMOVIL,"PAZ, GRAL. AV. 4500",GRAL PAZ,12,-34.56379980,-58.50598256
2016-0171,2016-12-25,19,LEVE - SIN LESIONES,M,47,MOTO,MOTO,"HUERGO, ING. AV. y AUTOPISTA 25 DE MAYO",AUTOPISTA,1,-34.62150748,-58.36607137
2016-0172,2016-12-26,8,FATAL,M,38,MOTO,TRANSPORTE PUBLICO,"GARAY, JUAN DE AV. y CASTRO",AVENIDA,5,-34.63174259,-58.41918902
2016-0173,2016-12-26,19,LEVE - SIN LESIONES,M,35,MOTO,TRANSPORTE PUBLICO,DIRECTORIO AV. y SAN PEDRITO AV.,AVENIDA,7,-34.63551751,-58.46749188
2016-0174,2016-12-27,0,LEVE - SIN LESIONES,M,41,SD,SD,AUTOPISTA 25 DE MAYO,AUTOPISTA,SD,.,.
2016-0175,2016-12-27,8,LEVE - SIN LESIONES,F,33,PEATON,BICICLETA,"FALCON, RAMON L.,CNEL. y MEMBRILLAR",CALLE,7,-34.62960517,-58.46064174
2016-0176,2016-12-28,1,LEVE - SIN LESIONES,M,28,MOTO,TRANSPORTE PUBLICO,BELGRANO AV. y PASEO COLON AV.,AVENIDA,1,-34.61232875,-58.36956186
2016-0177,2016-12-29,4,LEVE - SIN LESIONES,F,27,PEATON,AUTOMOVIL,ARENALES 3319,CALLE,14,-34.58788235,-58.40966671
2016-0178,2016-12-30,16,LEVE - SIN LESIONES,F,7,PEATON,OTRO,REPUBLICA BOLIVARIANA DE VENEZUELA y SAAVEDRA,CALLE,3,-34.61544091,-58.40288226
2017-0001,2017-01-02,1,FATAL,M,18,MOTO,TRANSPORTE PUBLICO,"JUSTO, JUAN B. AV. y ACHUPALLAS",AVENIDA,11,-34.61028571,-58.46594230
2017-0003,2017-01-05,3,FATAL,M,33,TRANSPORTE PUBLICO,TRANSPORTE PUBLICO,OLAVARRIA y VELEZ SARSFIELD AV.,AVENIDA,4,-34.64410277,-58.38957669
2017-0007,2017-01-11,17,FATAL,M,48,PEATON,OTRO,LIMA y MEXICO,CALLE,1,-34.61529543,-58.38161660
2017-0008,2017-01-16,0,FATAL,M,29,MOTO,TRANSPORTE PUBLICO,"CABRERA, JOSE A. y BONPLAND",CALLE,14,-34.58494351,-58.43917004
2017-0009,2017-01-16,13,FATAL,M,36,MOTO,TRANSPORTE PUBLICO,AUTOPISTA 25 DE MAYO y BOEDO AV.,AUTOPISTA,5,-34.62743346,-58.41595919
2017-0010,2017-01-16,16,FATAL,M,23,MOTO,AUTOMOVIL,DIRECTORIO AV. y RIGLOS,AVENIDA,6,-34.62828656,-58.43564880
2017-0011,2017-01-22,2,FATAL,F,29,MOTO,OTRO,"PAZ, GRAL. AV. y BALBIN, RICARDO, DR. AV.",GRAL PAZ,12,-34.54979510,-58.50073810
2017-0012,2017-01-24,14,FATAL,M,30,MOTO,TRANSPORTE PUBLICO,"TRAFUL y TABORDA, DIOGENES",CALLE,4,-34.65055290,-58.40969005
2017-0013,2017-01-27,7,FATAL,M,4,PEATON,TRANSPORTE PUBLICO,"IRIARTE, GRAL. AV. 3055",AVENIDA,4,-34.65098981,-58.38972622
2017-0014,2017-01-28,8,FATAL,F,22,MOTO,OTRO,DONADO y ARIAS,AVENIDA,12,-34.55046754,-58.49185972
2017-0015,2017-02-02,15,FATAL,M,82,PEATON,AUTOMOVIL,CORDOBA AV. y CALLAO AV.,AVENIDA,2,-34.59963642,-58.39293417
2017-0016,2017-02-03,5,FATAL,M,27,MOTO,TRANSPORTE PUBLICO,AUTOPISTA 25 DE MAYO KM. 8.3,AUTOPISTA,1,-34.62288231,-58.38099494
2017-0017,2017-02-06,8,FATAL,M,32,MOTO,AUTOMOVIL,"JUSTO, JUAN B. AV. y PARAGUAY",AVENIDA,14,-34.58095431,-58.42901200
2017-0018,2017-02-09,7,FATAL,M,30,MOTO,AUTOMOVIL,"PAZ, GRAL. AV. y DE LOS CORRALES AV.",GRAL PAZ,9,-34.66977709,-58.50877521
2017-0021,2017-02-18,5,FATAL,M,43,MOTO,TRANSPORTE PUBLICO,SARMIENTO y LIBERTAD,CALLE,1,-34.60509972,-58.38362373
2017-0024,2017-02-23,20,FATAL,M,39,PEATON,TRANSPORTE PUBLICO,RIVADAVIA AV. 7121,AVENIDA,7,-34.62955795,-58.46589308
2017-0025,2017-02-24,17,FATAL,M,23,MOTO,SD,"FERNANDEZ DE LA CRUZ, F., GRAL. AV. y RIVERA INDARTE AV.",AVENIDA,7,-34.65424640,-58.43614426
2017-0026,2017-02-26,5,FATAL,F,23,AUTOMOVIL,OTRO,"MORENO, PERITO AV. y FOURNIER",AVENIDA,4,-34.64979057,-58.41842777
2017-0026,2017-02-26,5,FATAL,M,19,AUTOMOVIL,OTRO,"MORENO, PERITO AV. y FOURNIER",AVENIDA,4,-34.64979057,-58.41842777
2017-0027,2017-02-26,21,FATAL,M,34,PEATON,AUTOMOVIL,CASEROS AV. 1429,AVENIDA,1,-34.63193250,-58.38332245
2017-0028,2017-02-28,9,FATAL,M,87,PEATON,AUTOMOVIL,GAONA AV. y FRAGATA PRES. SARMIENTO,AVENIDA,6,-34.61196327,-58.45475488
2017-0029,2017-03-07,2,FATAL,M,34,SD,AUTOMOVIL,MOZART y TANDIL,CALLE,9,-34.64742455,-58.48501341
2017-0030,2017-03-07,8,FATAL,F,27,AUTOMOVIL,TRANSPORTE PUBLICO,MOZART y AUTOPISTA DELLEPIANE LUIS TTE. GRAL.,AVENIDA,9,-34.65872088,-58.47010988
2017-0031,2017-03-11,1,FATAL,M,70,AUTOMOVIL,OTRO,24 DE NOVIEMBRE y PAVON,CALLE,3,-34.62873635,-58.40997560
2017-0032,2017-03-12,5,FATAL,F,40,AUTOMOVIL,AUTOMOVIL,"PAZ, GRAL. AV. y LOS CEDROS",GRAL PAZ,8,-34.68359163,-58.48892175
2017-0033,2017-03-12,7,FATAL,M,28,AUTOMOVIL,AUTOMOVIL,"PAZ, GRAL. AV. y GUTIERREZ, RICARDO",GRAL PAZ,11,-34.60325478,-58.52466448
2017-0034,2017-03-13,7,FATAL,M,43,PEATON,AUTOMOVIL,GODOY CRUZ 2651,CALLE,14,-34.57929036,-58.42554218
2017-0035,2017-03-23,5,FATAL,M,28,AUTOMOVIL,OTRO,"ACHAVAL RODRIGUEZ, T., DR. AV. y VILLAFLOR, AZUCENA",AVENIDA,1,-34.61113641,-58.35881506
2017-0035,2017-03-23,5,FATAL,M,32,AUTOMOVIL,OTRO,"ACHAVAL RODRIGUEZ, T., DR. AV. y VILLAFLOR, AZUCENA",AVENIDA,1,-34.61113641,-58.35881506
2017-0035,2017-03-23,5,FATAL,M,30,AUTOMOVIL,OTRO,"ACHAVAL RODRIGUEZ, T., DR. AV. y VILLAFLOR, AZUCENA",AVENIDA,1,-34.61113641,-58.35881506
2017-0036,2017-03-29,18,FATAL,F,31,MOTO,TRANSPORTE PUBLICO,"PAZ, GRAL. AV. y CAMPANA",GRAL PAZ,12,-34.58159762,-58.51452347
2017-0036,2017-03-29,18,FATAL,M,20,MOTO,TRANSPORTE PUBLICO,"PAZ, GRAL. AV. y CAMPANA",GRAL PAZ,12,-34.58159762,-58.51452347
2017-0037,2017-03-31,3,FATAL,M,41,MOTO,TRANSPORTE PUBLICO,"INDEPENDENCIA AV. y CEVALLOS, VIRREY",AVENIDA,1,-34.61799615,-58.38896772
2017-0038,2017-04-01,19,FATAL,F,40,MOTO,AUTOMOVIL,CASTAÃ‘ARES AV. y LAUTARO,AVENIDA,7,-34.64363363,-58.44516857
2017-0040,2017-04-03,9,FATAL,M,43,AUTOMOVIL,OTRO,"GUIRALDES, INT. 2699",AVENIDA,13,-34.54560369,-58.43834197
2017-0041,2017-04-03,23,LEVE - SIN LESIONES,M,17,MOTO,AUTOMOVIL,"FERNANDEZ MORENO, BALDOMERO 2186",CALLE,7,-34.63531854,-58.45485084
2017-0042,2017-04-10,9,FATAL,M,29,MOTO,TRANSPORTE PUBLICO,"LUGONES, LEOPOLDO AV.",GRAL PAZ,14,.,.
2017-0045,2017-04-14,6,FATAL,M,21,MOTO,OTRO,NOGOYA 5940,CALLE,10,-34.62454175,-58.52449285
2017-0047,2017-04-23,6,FATAL,M,37,MOTO,AUTOMOVIL,ARGENTINA AV. y CORVALAN,AVENIDA,8,-34.67198790,-58.46713742
2017-0049,2017-04-27,18,FATAL,M,22,PEATON,TRANSPORTE PUBLICO,"FERNANDEZ DE LA CRUZ, F., GRAL. AV. y VARELA AV.",AVENIDA,8,-34.65554754,-58.43850413
2017-0050,2017-04-28,11,FATAL,M,46,MOTO,TRANSPORTE PUBLICO,SD,AUTOPISTA,9,.,.
2017-0050,2017-04-28,11,FATAL,M,16,MOTO,TRANSPORTE PUBLICO,SD,AUTOPISTA,9,.,.
2017-0051,2017-05-01,3,FATAL,M,33,AUTOMOVIL,AUTOMOVIL,SD,AUTOPISTA,7,.,.
2017-0052,2017-05-05,3,FATAL,F,47,PEATON,TRANSPORTE PUBLICO,"PAZ, GRAL. AV. y GOLETA SANTA CRUZ",GRAL PAZ,8,-34.68095739,-58.49413799
2017-0053,2017-05-05,20,FATAL,M,28,MOTO,TRANSPORTE PUBLICO,VIEYTES y VILLARINO,CALLE,4,-34.65326075,-58.37547846
2017-0054,2017-05-07,21,FATAL,F,20,MOTO,AUTOMOVIL,"DE LOS CONSTITUYENTES AV. y MORAN, PEDRO",AVENIDA,15,-34.58689719,-58.48680218
2017-0055,2017-05-09,8,FATAL,M,32,AUTOMOVIL,AUTOMOVIL,DE LOS CONSTITUYENTES AV. 4900,AVENIDA,12,-34.57962262,-58.49563989
2017-0058,2017-05-09,23,FATAL,M,80,PEATON,MOTO,CORDOBA AV. y LIBERTAD,AVENIDA,1,-34.59915940,-58.38403232
2017-0059,2017-05-11,9,FATAL,F,39,PEATON,TRANSPORTE PUBLICO,BRASIL y LIMA,CALLE,1,-34.62693865,-58.38223382
2017-0060,2017-05-13,7,FATAL,M,30,MOTO,OTRO,"ESCALADA AV. y FERNANDEZ DE LA CRUZ, F., GRAL. AV.",AVENIDA,8,-34.67323292,-58.45966521
2017-0061,2017-05-15,13,FATAL,M,47,PEATON,MOTO,PARAGUAY y CALLAO AV.,AVENIDA,2,-34.59871111,-58.39303911
2017-0062,2017-05-15,16,FATAL,M,35,MOTO,TRANSPORTE PUBLICO,"JUSTO, JUAN B. AV. y SAN BLAS",AVENIDA,10,-34.63395999,-58.51262106
2017-0063,2017-05-17,10,FATAL,F,79,PEATON,TRANSPORTE PUBLICO,CHILE y 9 DE JULIO AV.,AVENIDA,1,-34.61646839,-58.38118367
2017-0064,2017-05-20,5,FATAL,M,61,TRANSPORTE PUBLICO,AUTOMOVIL,"MAIPU y PERON, JUAN DOMINGO, TTE. GENERAL",CALLE,1,-34.60582475,-58.37653284
2017-0065,2017-05-22,16,FATAL,M,21,BICICLETA,TRANSPORTE PUBLICO,SUAREZ AV. y HERRERA,AVENIDA,4,-34.64035082,-58.37709334
2017-0066,2017-05-22,18,FATAL,M,10,PEATON,TRANSPORTE PUBLICO,SAN MARTIN AV. y FRAGATA PRES. SARMIENTO,AVENIDA,15,-34.60409469,-58.46002142
2017-0067,2017-05-23,2,FATAL,M,21,MOTO,TRANSPORTE PUBLICO,"DIRECTORIO AV. y MORENO, JOSE MARIA AV.",AVENIDA,6,-34.62801894,-58.43381970
2017-0068,2017-05-27,19,FATAL,M,32,MOTO,OTRO,"RABANAL, FRANCISCO, INTENDENTE AV. 2950",AVENIDA,8,-34.66437532,-58.43580656
2017-0069,2017-05-24,14,FATAL,M,39,MOTO,SD,"PAZ, GRAL. AV. y SCHMIDL, ULRICO",GRAL PAZ,9,-34.65997463,-58.52173071
2017-0070,2017-05-30,13,FATAL,M,80,PEATON,AUTOMOVIL,NUEVA YORK 3696,CALLE,11,-34.59804273,-58.50791763
2017-0072,2017-06-03,23,FATAL,M,25,AUTOMOVIL,AUTOMOVIL,DE LOS CONSTITUYENTES AV. y VALLEJOS,AVENIDA,12,-34.58226957,-58.49175088
2017-0073,2017-06-04,9,FATAL,M,19,MOTO,AUTOMOVIL,CORRIENTES AV. y ECUADOR,AVENIDA,3,-34.60425669,-58.40781467
2017-0074,2017-06-04,12,FATAL,M,70,SD,SD,CASCO 133,CALLE,9,-34.63787791,-58.52567073
2017-0075,2017-06-12,22,FATAL,M,55,PEATON,MOTO,DE MAYO AV. y 9 DE JULIO AV.,AVENIDA,1,-34.60906385,-58.38154200
2017-0076,2017-06-13,14,FATAL,F,30,PEATON,TRANSPORTE PUBLICO,"CASTILLO, RAMON S., PRES. AV. y CALLE 12 (NO OFICIAL)",AVENIDA,2,-34.57805810,-58.38526125
2017-0077,2017-06-17,23,FATAL,F,60,MOTO,TRANSPORTE PUBLICO,FRAY JUSTO SANTAMARIA DE ORO 1930,CALLE,14,-34.58451712,-58.42934104
2017-0079,2017-06-19,16,FATAL,M,33,MOTO,TRANSPORTE PUBLICO,MEXICO y DEAN FUNES,CALLE,3,-34.61781124,-58.40657493
2017-0080,2017-06-22,10,FATAL,F,95,PEATON,TRANSPORTE PUBLICO,"ALBERDI, JUAN BAUTISTA AV. y ESCALADA AV.",AVENIDA,9,-34.64487785,-58.49525314
2017-0082,2017-06-25,22,FATAL,M,36,PEATON,AUTOMOVIL,ENTRE RIOS AV. y BRASIL,AVENIDA,4,-34.62932696,-58.39092851
2017-0083,2017-07-04,0,FATAL,M,37,MOTO,TRANSPORTE PUBLICO,"ALBERDI, JUAN BAUTISTA AV. y GUARDIA NACIONAL",AVENIDA,9,-34.64564271,-58.49603546
2017-0084,2017-07-05,12,FATAL,F,73,PEATON,TRANSPORTE PUBLICO,DEL LIBERTADOR AV. y RODRIGUEZ PEÃ‘A,AVENIDA,2,-34.58703485,-58.38502878
2017-0085,2017-07-07,14,FATAL,M,84,PEATON,TRANSPORTE PUBLICO,"TACUARI y GARCIA, MARTIN AV.",AVENIDA,4,-34.63150425,-58.37261143
2017-0086,2017-07-09,7,FATAL,F,30,PEATON,MOTO,RIVADAVIA AV. y MURGUIONDO,AVENIDA,9,-34.63905965,-58.51876802
2017-0087,2017-07-10,10,FATAL,F,73,PEATON,AUTOMOVIL,24 DE NOVIEMBRE 390,CALLE,3,-34.61516101,-58.41095567
2017-0088,2017-07-10,22,FATAL,M,43,PEATON,TRANSPORTE PUBLICO,PASEO COLON AV. y BRASIL AV.,AVENIDA,1,-34.62519403,-58.36797542
2017-0089,2017-07-13,12,LEVE - SIN LESIONES,M,23,SD,AUTOMOVIL,"LEGUIZAMON, MARTINIANO 901",CALLE,9,-34.64787051,-58.51514709
2017-0090,2017-07-15,5,FATAL,M,22,PEATON,AUTOMOVIL,"CHIVILCOY AV. y PAZ, GRAL. AV.",GRAL PAZ,11,-34.59171721,-58.51925642
2017-0091,2017-07-15,13,FATAL,M,58,MOTO,SD,"SUPERI y PAZ, GRAL. AV.",GRAL PAZ,12,-34.54321216,-58.48671535
2017-0092,2017-07-24,22,FATAL,M,66,PEATON,AUTOMOVIL,AUTOPISTA 25 DE MAYO y AUTOPISTA 1 SUR PRESIDENTE ARTURO FRONDIZI,AUTOPISTA,1,-34.62282019,-58.38268809
2017-0093,2017-07-25,16,FATAL,M,30,PEATON,AUTOMOVIL,"LUGONES, LEOPOLDO AV. y PUENTE DISTRIBUIDOR SCALABRINI ORTIZ",AUTOPISTA,13,-34.54966288,-58.43633522
2017-0094,2017-07-27,8,FATAL,F,56,BICICLETA,TRANSPORTE PUBLICO,"HUGO, VICTOR 2639",CALLE,10,-34.61765855,-58.52640838
2017-0095,2017-08-06,8,FATAL,M,36,MOTO,AUTOMOVIL,"CORDOBA AV. y SALGUERO, JERONIMO",AVENIDA,14,-34.59778875,-58.41894306
2017-0096,2017-08-07,19,FATAL,M,87,PEATON,TRANSPORTE PUBLICO,CABILDO AV. y NUÃ‘EZ,AVENIDA,13,-34.54972741,-58.46756026
2017-0098,2017-08-08,12,FATAL,F,61,PEATON,AUTOMOVIL,"BONIFACIO, JOSE 2114",CALLE,7,-34.63132912,-58.45715752
2017-0099,2017-08-17,19,FATAL,M,28,BICICLETA,AUTOMOVIL,"FIGUEROA ALCORTA, PRES. AV. 5400",AVENIDA,14,-34.56213916,-58.42406784
2017-0100,2017-08-21,7,FATAL,F,16,MOTO,OTRO,REPUBLICA BOLIVARIANA DE VENEZUELA 2135,CALLE,3,-34.61512051,-58.39674470
2017-0101,2017-08-23,10,FATAL,F,61,PEATON,OTRO,"LACROZE, FEDERICO AV. y ZAPATA",AVENIDA,13,-34.57084818,-58.44537508
2017-0102,2017-08-24,1,FATAL,M,46,PEATON,TRANSPORTE PUBLICO,"IRIARTE, GRAL. AV. y ZAVALETA",AVENIDA,4,-34.65107080,-58.40056767
2017-0104,2017-08-25,9,FATAL,F,18,PEATON,TRANSPORTE PUBLICO,9 DE JULIO AV. y ESTADOS UNIDOS,AVENIDA,1,-34.61853244,-58.38109568
2017-0106,2017-08-31,19,FATAL,F,85,PEATON,TRANSPORTE PUBLICO,FRAY JUSTO SANTAMARIA DE ORO y GUEMES,CALLE,14,-34.58035258,-58.42533612
2017-0107,2017-09-01,11,FATAL,M,41,MOTO,TRANSPORTE PUBLICO,DEL LIBERTADOR AV. y JARAMILLO,AVENIDA,13,-34.54395182,-58.46062311
2017-0108,2017-09-02,4,FATAL,M,17,AUTOMOVIL,AUTOMOVIL,"PAZ, GRAL. AV. y MACHAIN",GRAL PAZ,12,-34.54795581,-58.49491054
2017-0108,2017-09-02,4,FATAL,M,10,AUTOMOVIL,AUTOMOVIL,"PAZ, GRAL. AV. y MACHAIN",GRAL PAZ,12,-34.54795581,-58.49491054
2017-0109,2017-09-04,21,FATAL,M,21,MOTO,AUTOMOVIL,DIRECTORIO AV. y PORTELA,AVENIDA,7,-34.63665402,-58.47130269
2017-0110,2017-09-06,14,FATAL,M,56,PEATON,TRANSPORTE PUBLICO,"LAVALLE y ALEM, LEANDRO N. AV.",AVENIDA,1,-34.60189492,-58.37048800
2017-0111,2017-09-07,18,FATAL,F,79,PEATON,TRANSPORTE PUBLICO,USPALLATA y PIROVANO,CALLE,4,-34.64234110,-58.42023854
2017-0112,2017-09-10,9,LEVE - SIN LESIONES,M,1,AUTOMOVIL,OTRO,AUTOPISTA 25 DE MAYO y VARELA AV.,AUTOPISTA,7,-34.63997430,-58.45807401
2017-0112,2017-09-10,9,FATAL,M,21,AUTOMOVIL,OTRO,AUTOPISTA 25 DE MAYO y VARELA AV.,AUTOPISTA,7,-34.63997430,-58.45807401
2017-0113,2017-09-11,6,FATAL,F,76,PEATON,TRANSPORTE PUBLICO,SANTA FE AV. y MAIPU,AVENIDA,1,-34.59573848,-58.37697717
2017-0114,2017-09-15,2,FATAL,M,26,AUTOMOVIL,OTRO,ALVEAR AV. y DEL LIBERTADOR AV.,AVENIDA,2,-34.58498660,-58.39100580
2017-0115,2017-09-19,18,LEVE - SIN LESIONES,M,34,MOTO,BICICLETA,PAVON AV. y TREINTA Y TRES ORIENTALES,AVENIDA,5,-34.63089661,-58.42182126
2017-0116,2017-09-20,22,FATAL,M,22,MOTO,OTRO,"PAZ, GRAL. AV. 5750",GRAL PAZ,12,-34.58075791,-58.51389422
2017-0118,2017-09-22,7,FATAL,F,26,MOTO,AUTOMOVIL,"VIEYTES y CRUZ, OSVALDO AV.",AVENIDA,4,-34.65232158,-58.37585415
2017-0120,2017-10-02,15,FATAL,M,20,MOTO,TRANSPORTE PUBLICO,AUTOPISTA DELLEPIANE LUIS TTE. GRAL. y ESCALADA AV.,AUTOPISTA,9,-34.66245085,-58.47297505
2017-0123,2017-10-10,1,FATAL,F,36,PEATON,AUTOMOVIL,ALBARIÃ‘O y ARGENTINA AV.,AVENIDA,8,-34.67216349,-58.46855503
2017-0124,2017-10-12,14,FATAL,M,51,MOTO,TRANSPORTE PUBLICO,"RAMIREZ DE VELASCO, JUAN 1211",CALLE,15,-34.59185043,-58.44254033
2017-0125,2017-10-13,6,FATAL,M,29,MOTO,OTRO,"FERNANDEZ DE LA CRUZ, F., GRAL. AV. y LARRAYA",AVENIDA,8,-34.67926929,-58.46622247
2017-0126,2017-10-14,6,LEVE - SIN LESIONES,M,39,AUTOMOVIL,OTRO,RIESTRA AV. y CAÃ‘ADA DE GOMEZ,AVENIDA,8,-34.68148508,-58.48003734
2017-0126,2017-10-14,6,FATAL,M,36,AUTOMOVIL,OTRO,RIESTRA AV. y CAÃ‘ADA DE GOMEZ,AVENIDA,8,-34.68148508,-58.48003734
2017-0127,2017-10-16,7,FATAL,M,24,MOTO,MOTO,GALLO y CORDOBA AV.,AVENIDA,2,-34.59800248,-58.41192137
2017-0128,2017-10-17,12,FATAL,F,60,PEATON,TRANSPORTE PUBLICO,"ARANGUREN, JUAN F., DR. 611",CALLE,6,-34.61349731,-58.44034689
2017-0129,2017-10-26,19,FATAL,M,57,MOTO,TRANSPORTE PUBLICO,AUTOPISTA PERITO MORENO y AUTOPISTA 25 DE MAYO,AUTOPISTA,9,-34.64925746,-58.47155277
2017-0130,2017-10-27,5,FATAL,M,23,AUTOMOVIL,TRANSPORTE PUBLICO,CHORROARIN y SAN MARTIN AV.,AVENIDA,15,-34.59967065,-58.47883099
2017-0132,2017-10-30,14,FATAL,M,23,MOTO,TRANSPORTE PUBLICO,"COSQUIN y ROCA, CNEL. AV.",AVENIDA,8,-34.69374130,-58.46552171
2017-0134,2017-11-06,18,FATAL,F,47,PEATON,TRANSPORTE PUBLICO,"ROCA, CNEL. AV. 3555",AVENIDA,8,-34.66777987,-58.44239720
2017-0135,2017-11-07,12,FATAL,M,24,MOTO,TRANSPORTE PUBLICO,WARNES AV. y PUNTA ARENAS,AVENIDA,15,-34.59626814,-58.47032551
2017-0136,2017-11-16,8,FATAL,M,55,PEATON,TRANSPORTE PUBLICO,"BARCO CENTENERA DEL y RABANAL, FRANCISCO, INTENDENTE AV.",AVENIDA,4,-34.65522746,-58.41827843
2017-0137,2017-11-17,11,FATAL,F,60,PEATON,TRANSPORTE PUBLICO,MOSCONI GENERAL AV. y SAN NICOLAS,AVENIDA,11,-34.59279388,-58.51280715
2017-0138,2017-11-19,10,FATAL,M,25,MOTO,OTRO,"LAFUENTE AV. y PERON, EVA AV.",AVENIDA,7,-34.64385704,-58.46258582
2017-0139,2017-11-19,22,FATAL,F,15,AUTOMOVIL,OTRO,"ROCA, CNEL. AV. y ESCALADA AV.",AVENIDA,8,-34.68003614,-58.45064148
2017-0140,2017-11-19,23,FATAL,M,24,MOTO,TRANSPORTE PUBLICO,AUTOPISTA 1 SUR PRESIDENTE ARTURO FRONDIZI,AUTOPISTA,4,.,.
2017-0141,2017-11-23,19,FATAL,F,22,PEATON,TRANSPORTE PUBLICO,"LA PLATA AV. y GOYENA, PEDRO AV.",AVENIDA,6,-34.62513374,-58.42717783
2017-0143,2017-11-25,21,FATAL,M,50,AUTOMOVIL,TRANSPORTE PUBLICO,"TRELLES, MANUEL R. y DIAZ, CESAR, GRAL.",CALLE,11,-34.60724519,-58.46442001
2017-0144,2017-11-26,6,FATAL,F,50,AUTOMOVIL,OTRO,"ROCA, CNEL. AV. y PAZ, GRAL. AV.",GRAL PAZ,8,-34.69843756,-58.47064556
2017-0145,2017-11-26,17,FATAL,M,58,MOTO,AUTOMOVIL,MAZA y DON BOSCO,CALLE,5,-34.61223119,-58.41677733
2017-0147,2017-11-28,11,FATAL,M,49,MOTO,AUTOMOVIL,"PAZ, GRAL. AV. y PERON, EVA AV.",GRAL PAZ,9,-34.67450313,-58.50251790
2017-0148,2017-11-29,10,FATAL,F,82,PEATON,TRANSPORTE PUBLICO,SAN JUAN AV. y LA RIOJA,AVENIDA,3,-34.62438894,-58.40708125
2017-0149,2017-11-30,12,FATAL,M,13,PEATON,TRANSPORTE PUBLICO,PASEO COLON AV. y MEXICO,AVENIDA,1,-34.61477051,-58.36947198
2017-0150,2017-12-04,1,FATAL,M,56,PEATON,AUTOMOVIL,RIVADAVIA AV. y MIRALLA,AVENIDA,9,-34.63934531,-58.51140889
2017-0151,2017-12-04,2,FATAL,M,35,PEATON,TRANSPORTE PUBLICO,VIEYTES y LUJAN,CALLE,4,-34.65559133,-58.37460912
2017-0152,2017-12-06,17,FATAL,M,19,BICICLETA,TRANSPORTE PUBLICO,CACHI y TRAFUL,CALLE,4,-34.65073916,-58.41146277
2017-0153,2017-12-11,2,FATAL,M,34,MOTO,TRANSPORTE PUBLICO,ROSARIO y LA PLATA AV.,AVENIDA,6,-34.61829385,-58.42855267
2017-0153,2017-12-11,2,FATAL,M,30,MOTO,TRANSPORTE PUBLICO,ROSARIO y LA PLATA AV.,AVENIDA,6,-34.61829385,-58.42855267
2017-0154,2017-12-11,9,FATAL,M,76,PEATON,TRANSPORTE PUBLICO,ENTRE RIOS AV. y CASEROS AV.,AVENIDA,4,-34.63412287,-58.39035581
2017-0155,2017-12-12,21,LEVE - SIN LESIONES,M,77,SD,MOTO,RIVADAVIA AV. 6350,AVENIDA,7,-34.62656868,-58.45593915
2017-0157,2017-12-17,9,FATAL,M,53,AUTOMOVIL,TRANSPORTE PUBLICO,"PAZ, GRAL. AV. y HUMAITA",GRAL PAZ,9,-34.64597065,-58.52866211
2017-0158,2017-12-18,21,FATAL,M,32,MOTO,AUTOMOVIL,"GUALEGUAYCHU y PAZ, GRAL. AV.",GRAL PAZ,11,-34.59407024,-58.52037476
2017-0159,2017-12-20,4,FATAL,M,27,MOTO,AUTOMOVIL,"INDEPENDENCIA AV. y CEVALLOS, VIRREY",AVENIDA,1,-34.61799615,-58.38896772
2017-0160,2017-12-22,13,FATAL,F,30,PEATON,MOTO,NAZCA AV. 365,AVENIDA,7,-34.62771756,-58.47074114
2017-0161,2017-12-26,15,FATAL,F,30,PEATON,AUTOMOVIL,"PERON, EVA AV. 5249",AVENIDA,9,-34.65969965,-58.48200819
2018-0001,2018-01-01,22,FATAL,M,83,PEATON,MOTO,SAN JUAN AV. y RINCON,AVENIDA,3,-34.62297346,-58.39536773
2018-0002,2018-01-03,16,FATAL,F,26,BICICLETA,TRANSPORTE PUBLICO,PERU 937,CALLE,1,-34.61895467,-58.37456088
2018-0003,2018-01-05,10,FATAL,F,58,PEATON,OTRO,"PUEYRREDON, HONORIO, DR. AV. y GALICIA",AVENIDA,15,-34.60395657,-58.44860217
2018-0004,2018-01-09,9,FATAL,M,39,MOTO,OTRO,DEL LIBERTADOR AV. y MANZANARES,AVENIDA,13,-34.54332766,-58.46129513
2018-0005,2018-01-09,22,FATAL,M,54,PEATON,TRANSPORTE PUBLICO,PASEO COLON AV. 1019,AVENIDA,1,-34.61953517,-58.36907201
2018-0006,2018-01-10,21,FATAL,F,45,BICICLETA,TRANSPORTE PUBLICO,VALLE y BARCO CENTENERA DEL,CALLE,6,-34.62499107,-58.44062219
2018-0007,2018-01-11,2,FATAL,M,46,AUTOMOVIL,AUTOMOVIL,AUTOPISTA PERITO MORENO KM. 0.6,AUTOPISTA,9,-34.63601265,-58.52502765
2018-0008,2018-01-12,17,FATAL,F,32,MOTO,TRANSPORTE PUBLICO,"HUERGO, ING. AV. e INDEPENDENCIA AV.",AVENIDA,1,-34.61687778,-58.36659655
2018-0009,2018-01-14,2,FATAL,M,19,MOTO,MOTO,"PILCOMAYO y BROWN, ALTE. AV.",AVENIDA,4,-34.62763661,-58.36737389
2018-0010,2018-01-18,5,FATAL,M,40,MOTO,TRANSPORTE PUBLICO,"CERVANTES y BELAUSTEGUI, LUIS, DR.",CALLE,10,-34.63038658,-58.49807953
2018-0011,2018-01-19,10,FATAL,M,84,PEATON,TRANSPORTE PUBLICO,"CALLAO AV. y LOPEZ, VICENTE",AVENIDA,2,-34.59088447,-58.39092703
2018-0012,2018-01-26,13,FATAL,M,20,MOTO,TRANSPORTE PUBLICO,"OLIDEN y CHILAVERT, MARTINIANO, CORONEL",CALLE,8,-34.68049201,-58.46912006
2018-0013,2018-01-28,8,FATAL,M,44,MOTO,AUTOMOVIL,CONGRESO AV. y GALVAN,AVENIDA,12,-34.56786129,-58.48661286
2018-0014,2018-01-31,20,FATAL,M,22,PEATON,MOTO,"MORENO, PERITO AV. y RIVERA INDARTE AV.",AVENIDA,7,-34.65080597,-58.44074927
2018-0015,2018-02-06,1,FATAL,M,28,MOTO,TRANSPORTE PUBLICO,AUSTRALIA AV. 2800,AVENIDA,4,-34.64684275,-58.38636298
2018-0015,2018-02-06,1,FATAL,M,19,MOTO,TRANSPORTE PUBLICO,AUSTRALIA AV. 2800,AVENIDA,4,-34.64684275,-58.38636298
2018-0016,2018-02-15,10,FATAL,M,31,MOTO,TRANSPORTE PUBLICO,"DEL LIBERTADOR AV. y RAMOS MEJIA, JOSE MARIA, DR. AV.",AVENIDA,1,-34.59276462,-58.37533517
2018-0017,2018-02-17,4,FATAL,M,35,PEATON,AUTOMOVIL,SAN PEDRITO AV. y RIVADAVIA AV.,AVENIDA,7,-34.63070603,-58.46963952
2018-0018,2018-02-17,7,FATAL,M,26,MOTO,TRANSPORTE PUBLICO,"ISABEL LA CATOLICA y SALVADORES, CNEL.",CALLE,4,-34.64543658,-58.37207554
2018-0019,2018-02-17,12,FATAL,F,80,PEATON,TRANSPORTE PUBLICO,LAS HERAS GENERAL AV. y CALLAO AV.,AVENIDA,2,-34.59176378,-58.39189441
2018-0020,2018-02-19,22,FATAL,M,26,MOTO,TRANSPORTE PUBLICO,"FERNANDEZ DE LA CRUZ F., GRAL. AV. y AUTOPISTA PRESIDENTE HECTOR J. CAMPORA",AUTOPISTA,8,-34.66518343,-58.45012957
2018-0021,2018-02-22,10,FATAL,F,62,PEATON,TRANSPORTE PUBLICO,"ALCORTA, AMANCIO AV. y ZAVALETA",AVENIDA,4,-34.64546845,-58.40184094
2018-0022,2018-02-24,0,FATAL,M,28,MOTO,TRANSPORTE PUBLICO,"MONTES DE OCA, MANUEL AV. y OLAVARRIA",AVENIDA,4,-34.63966783,-58.37441153
2018-0023,2018-02-24,6,FATAL,M,28,MOTO,AUTOMOVIL,BARCO CENTENERA DEL y ROSARIO,CALLE,6,-34.62082399,-58.44110156
2018-0024,2018-02-28,23,FATAL,M,70,PEATON,TRANSPORTE PUBLICO,ALVAREZ THOMAS AV. y DONADO,AVENIDA,15,-34.57827342,-58.47087351
2018-0025,2018-03-04,22,FATAL,M,70,PEATON,AUTOMOVIL,AVELLANEDA AV. y BOYACA AV.,AVENIDA,7,-34.62245140,-58.45962210
2018-0026,2018-03-09,4,FATAL,M,24,AUTOMOVIL,TRANSPORTE PUBLICO,"RABANAL, FRANCISCO, INTENDENTE AV. y SAENZ AV.",AVENIDA,4,-34.65476216,-58.41657793
2018-0026,2018-03-09,4,FATAL,M,30,AUTOMOVIL,TRANSPORTE PUBLICO,"RABANAL, FRANCISCO, INTENDENTE AV. y SAENZ AV.",AVENIDA,4,-34.65476216,-58.41657793
2018-0027,2018-03-11,23,FATAL,F,74,PEATON,MOTO,CASTRO y RONDEAU,CALLE,5,-34.63722107,-58.41911301
2018-0028,2018-03-13,15,FATAL,M,71,PEATON,TRANSPORTE PUBLICO,"BILBAO, FRANCISCO AV. y AZUL",AVENIDA,9,-34.64251042,-58.47120586
2018-0029,2018-03-15,18,FATAL,M,26,MOTO,AUTOMOVIL,NAZCA AV. y GAONA AV.,AVENIDA,11,-34.62049672,-58.47418944
2018-0030,2018-03-20,1,FATAL,M,24,MOTO,MOTO,PLAZA y ALVAREZ THOMAS AV.,AVENIDA,15,-34.57905579,-58.46720441
2018-0031,2018-03-28,10,FATAL,M,31,MOTO,TRANSPORTE PUBLICO,"GAONA AV. y ARTIGAS, JOSE GERVASIO, GRAL.",AVENIDA,11,-34.61779710,-58.46909362
2018-0032,2018-04-02,13,FATAL,M,70,PEATON,TRANSPORTE PUBLICO,CABILDO AV. y AGUILAR,AVENIDA,13,-34.56888640,-58.44704343
2018-0033,2018-04-07,7,FATAL,F,42,MOTO,TRANSPORTE PUBLICO,CAMARONES y LOPE DE VEGA AV.,AVENIDA,10,-34.62902048,-58.50535541
2018-0034,2018-04-11,18,FATAL,M,24,PEATON,TRANSPORTE PUBLICO,SANTA FE AV. 2320,AVENIDA,2,-34.59522198,-58.40021675
2018-0035,2018-04-12,16,FATAL,F,39,PEATON,TRANSPORTE PUBLICO,RIVADAVIA AV. 6950,AVENIDA,7,-34.62919627,-58.46325991
2018-0036,2018-04-13,23,FATAL,M,37,MOTO,AUTOMOVIL,SAN MARTIN AV. y ARGERICH,AVENIDA,15,-34.59694755,-58.49471482
2018-0037,2018-04-18,18,FATAL,M,84,PEATON,TRANSPORTE PUBLICO,"CORDOBA AV. y URIBURU JOSE E., PRES.",AVENIDA,2,-34.59975962,-58.39872610
2018-0038,2018-04-20,17,FATAL,F,59,PEATON,AUTOMOVIL,RIVADAVIA AV. 1571,AVENIDA,1,-34.60885045,-58.38872177
2018-0038,2018-04-20,17,FATAL,M,61,PEATON,AUTOMOVIL,RIVADAVIA AV. 1571,AVENIDA,1,-34.60885045,-58.38872177
2018-0039,2018-04-21,22,FATAL,M,37,PEATON,AUTOMOVIL,SD,AUTOPISTA,14,.,.
2018-0040,2018-04-27,11,FATAL,F,38,PEATON,TRANSPORTE PUBLICO,"FREIRE, RAMON, CAP. GRAL. y OLAGUER Y FELIU, VIRREY",CALLE,13,-34.57305993,-58.45686132
2018-0041,2018-04-27,13,FATAL,F,78,PEATON,TRANSPORTE PUBLICO,"LA PLATA AV. y FERNANDEZ DE LA CRUZ, F., GRAL. AV.",AVENIDA,4,-34.64282424,-58.42281627
2018-0042,2018-04-27,18,FATAL,M,23,MOTO,TRANSPORTE PUBLICO,BRANDSEN y PERDRIEL,CALLE,4,-34.63953396,-58.38666024
2018-0043,2018-04-28,6,FATAL,M,25,MOTO,AUTOMOVIL,"VILARDEBO, TEODORO y ALVAREZ JONTE AV.",AVENIDA,11,-34.61207587,-58.49122843
2018-0044,2018-04-28,9,FATAL,F,50,PEATON,AUTOMOVIL,ALBERTI e INDEPENDENCIA AV.,AVENIDA,3,-34.61866627,-58.40098306
2018-0045,2018-04-30,7,FATAL,M,60,AUTOMOVIL,TRANSPORTE PUBLICO,ALVAREZ THOMAS AV. 879,AVENIDA,13,-34.57916920,-58.45448963
2018-0046,2018-05-02,3,FATAL,M,11,PEATON,AUTOMOVIL,"PAZ, GRAL. AV. y RIVADAVIA AV.",GRAL PAZ,9,-34.63931752,-58.52927982
2018-0047,2018-05-08,19,FATAL,M,82,PEATON,TRANSPORTE PUBLICO,CORRIENTES AV. y DORREGO AV.,AVENIDA,15,-34.59170240,-58.44759966
2018-0048,2018-05-09,10,FATAL,M,57,PEATON,TRANSPORTE PUBLICO,RIVADAVIA AV. y PEDERNERA,AVENIDA,7,-34.62925068,-58.46411215
2018-0049,2018-05-11,19,FATAL,F,40,PEATON,AUTOMOVIL,QUESADA 2300,CALLE,13,-34.55395823,-58.46213220
2018-0050,2018-05-14,18,FATAL,F,47,PEATON,TRANSPORTE PUBLICO,CABILDO AV. y JURAMENTO AV.,AVENIDA,13,-34.56203610,-58.45669422
2018-0051,2018-05-15,21,FATAL,F,57,PEATON,AUTOMOVIL,"CALIFORNIA y CARBONARI, FRANCISCO, CMTE.",CALLE,4,-34.64341878,-58.35977160
2018-0052,2018-05-18,20,FATAL,M,78,PEATON,TRANSPORTE PUBLICO,"CARRIL, SALVADOR MARIA DEL AV. y NAZCA",AVENIDA,15,-34.59070093,-58.49820145
2018-0053,2018-05-20,2,FATAL,M,43,MOTO,AUTOMOVIL,SAN LUIS y AGUERO,CALLE,3,-34.59939180,-58.41059280
2018-0054,2018-05-22,11,FATAL,F,86,PEATON,BICICLETA,LUGONES 2430,CALLE,12,-34.57121563,-58.47969138
2018-0055,2018-05-29,7,FATAL,M,21,MOTO,AUTOMOVIL,INDEPENDENCIA AV. y JUJUY AV.,AVENIDA,3,-34.61883916,-58.40351561
2018-0056,2018-06-02,13,FATAL,F,69,PEATON,TRANSPORTE PUBLICO,RIVADAVIA AV. 11050,AVENIDA,9,-34.63918987,-58.51973844
2018-0057,2018-06-03,3,FATAL,M,33,MOTO,TRANSPORTE PUBLICO,COMBATE DE LOS POZOS y HUMBERTO 1Â°,CALLE,3,-34.62163006,-58.39311376
2018-0058,2018-06-03,6,FATAL,M,26,MOTO,AUTOMOVIL,CORDOBA AV. y THAMES,AVENIDA,15,-34.59082159,-58.43531242
2018-0059,2018-06-08,6,FATAL,M,54,MOTO,OTRO,"GARAY, JUAN DE AV. y SANCHEZ DE LORIA",AVENIDA,5,-34.63035454,-58.41178165
2018-0060,2018-06-08,12,FATAL,M,51,PEATON,TRANSPORTE PUBLICO,"LAVALLE y ALEM, LEANDRO N. AV.",AVENIDA,1,-34.60189492,-58.37048800
2018-0061,2018-06-10,11,FATAL,M,51,MOTO,MOTO,ESTADOS UNIDOS y PICHINCHA,CALLE,3,-34.61964833,-58.39883882
2018-0062,2018-06-14,1,FATAL,M,32,PEATON,TRANSPORTE PUBLICO,ROSARIO y BARCO CENTENERA DEL,CALLE,6,-34.62082399,-58.44110156
2018-0063,2018-06-16,21,FATAL,F,28,PEATON,TRANSPORTE PUBLICO,"ALEM, LEANDRO N. AV. y VIAMONTE",AVENIDA,1,-34.59952725,-58.37093138
2018-0064,2018-06-25,1,FATAL,M,30,AUTOMOVIL,TRANSPORTE PUBLICO,VARELA AV. y PRIMERA JUNTA,AVENIDA,7,-34.63953253,-58.45855262
2018-0065,2018-06-26,17,FATAL,M,35,MOTO,TRANSPORTE PUBLICO,"PELLEGRINI, CARLOS y JUNCAL",CALLE,1,-34.59283447,-58.38161909
2018-0066,2018-06-28,11,FATAL,M,73,PEATON,TRANSPORTE PUBLICO,"CORRIENTES AV. y LACROZE, FEDERICO AV.",AVENIDA,15,-34.58698157,-58.45511899
2018-0067,2018-06-29,16,FATAL,F,81,TRANSPORTE PUBLICO,AUTOMOVIL,"MONTES DE OCA, MANUEL AV. y FINOCHIETTO ENRIQUE DR.",AVENIDA,4,-34.62973033,-58.37724226
2018-0068,2018-07-01,9,FATAL,M,21,MOTO,AUTOMOVIL,"CARABOBO AV. y ALBERDI, JUAN BAUTISTA AV.",AVENIDA,7,-34.62930339,-58.45546217
2018-0069,2018-07-04,21,FATAL,M,20,BICICLETA,TRANSPORTE PUBLICO,CORDOBA AV. 2215,AVENIDA,2,-34.59954925,-58.39897064
2018-0070,2018-07-07,15,FATAL,M,33,MOTO,TRANSPORTE PUBLICO,"ESTADOS UNIDOS y URQUIZA, GRAL.",CALLE,3,-34.62126274,-58.40917826
2018-0071,2018-07-10,17,FATAL,M,36,MOTO,TRANSPORTE PUBLICO,"MORENO y HUERGO, ING. AV.",AVENIDA,1,-34.61099738,-58.36726348
2018-0072,2018-07-11,13,FATAL,M,27,MOTO,TRANSPORTE PUBLICO,AUTOPISTA DELLEPIANE LUIS TTE. GRAL. y MONTIEL,AUTOPISTA,8,-34.68454456,-58.48267426
2018-0073,2018-07-11,15,FATAL,F,67,PEATON,TRANSPORTE PUBLICO,"IRIARTE, GRAL. AV. 3400",AVENIDA,4,-34.65168841,-58.39546165
2018-0074,2018-07-14,6,FATAL,M,25,AUTOMOVIL,TRANSPORTE PUBLICO,"ALBERDI, JUAN BAUTISTA AV. 2968",AVENIDA,7,-34.63376545,-58.46941984
2018-0075,2018-07-15,7,FATAL,M,23,PEATON,AUTOMOVIL,DEL LIBERTADOR AV. y ORTIZ DE OCAMPO,AVENIDA,14,-34.58129246,-58.40367321
2018-0076,2018-07-16,9,FATAL,M,73,AUTOMOVIL,TRANSPORTE PUBLICO,"CHAVEZ, JORGE y PAZ, GRAL. AV.",CALLE,9,-34.65014993,-58.52932872
2018-0077,2018-07-16,23,FATAL,M,58,AUTOMOVIL,TRANSPORTE PUBLICO,"URQUIZA, GRAL. y ESTADOS UNIDOS",CALLE,3,-34.62126274,-58.40917826
2018-0078,2018-07-21,6,FATAL,M,27,PEATON,AUTOMOVIL,PARAGUAY y SANCHEZ DE BUSTAMANTE,CALLE,2,-34.59473294,-58.41264127
2018-0079,2018-07-23,7,FATAL,M,37,PEATON,TRANSPORTE PUBLICO,"DE LOS CORRALES AV. y PAZ, GRAL. AV.",GRAL PAZ,9,-34.66977709,-58.50877521
2018-0080,2018-07-25,22,FATAL,M,26,PEATON,AUTOMOVIL,"ALBERDI, JUAN BAUTISTA AV. y CARHUE",AVENIDA,9,-34.65903530,-58.51232237
2018-0081,2018-07-29,6,FATAL,M,35,PEATON,OTRO,CASTAÃ‘ARES AV. y RIVERA INDARTE AV.,AVENIDA,7,-34.64567171,-58.44744156
2018-0082,2018-08-01,15,FATAL,F,17,MOTO,TRANSPORTE PUBLICO,"LARRAZABAL y GARZON, EUGENIO, GRAL. AV.",AVENIDA,9,-34.65869968,-58.49441273
2018-0083,2018-08-02,5,FATAL,M,24,MOTO,TRANSPORTE PUBLICO,"PAZ, GRAL. AV. y FERNANDEZ DE LA CRUZ, F., GRAL. AV.",GRAL PAZ,8,-34.69153196,-58.47976785
2018-0084,2018-08-03,7,FATAL,M,45,PEATON,TRANSPORTE PUBLICO,"MOREAU DE JUSTO, ALICIA AV. y COCHABAMBA",AVENIDA,1,-34.62260331,-58.36523349
2018-0085,2018-08-03,18,FATAL,F,22,MOTO,TRANSPORTE PUBLICO,"ENTRE RIOS AV. y GARAY, JUAN DE AV.",AVENIDA,3,-34.62704273,-58.39118948
2018-0085,2018-08-03,18,FATAL,M,30,MOTO,TRANSPORTE PUBLICO,"ENTRE RIOS AV. y GARAY, JUAN DE AV.",AVENIDA,3,-34.62704273,-58.39118948
2018-0086,2018-08-10,21,FATAL,M,40,PEATON,TRANSPORTE PUBLICO,DIRECTORIO AV. y GUARDIA NACIONAL,AVENIDA,9,-34.65015854,-58.49019551
2018-0087,2018-08-15,19,FATAL,M,75,PEATON,TRANSPORTE PUBLICO,PAVON AV. y COLOMBRES,AVENIDA,5,-34.63023775,-58.41644362
2018-0088,2018-08-17,16,FATAL,M,49,MOTO,TRANSPORTE PUBLICO,"PAZ, GRAL. AV. y BALBIN, RICARDO, DR. AV.",GRAL PAZ,12,-34.54979510,-58.50073810
2018-0089,2018-08-17,17,FATAL,M,80,PEATON,TRANSPORTE PUBLICO,PICHINCHA AV. y BRASIL,AVENIDA,4,-34.63036565,-58.39626094
2018-0090,2018-08-18,10,FATAL,M,27,MOTO,AUTOMOVIL,27 DE FEBRERO AV. y PERGAMINO,AVENIDA,8,-34.67051543,-58.43284809
2018-0091,2018-08-19,18,FATAL,F,23,AUTOMOVIL,AUTOMOVIL,AUTOPISTA PERITO MORENO y BARRAGAN,AUTOPISTA,9,-34.63659934,-58.52280139
2018-0092,2018-08-20,8,FATAL,M,23,MOTO,AUTOMOVIL,CORDOBA AV. y GASCON,AVENIDA,14,-34.59774487,-58.42336930
2018-0093,2018-08-20,8,FATAL,M,24,PEATON,TRANSPORTE PUBLICO,15 DE NOVIEMBRE DE 1889 1513,CALLE,1,-34.63105973,-58.38691681
2018-0094,2018-08-23,5,FATAL,M,32,MOTO,TRANSPORTE PUBLICO,"SALGUERO, JERONIMO y BERUTI",CALLE,14,-34.58579880,-58.41169020
2018-0095,2018-08-26,0,FATAL,F,49,AUTOMOVIL,AUTOMOVIL,"LACARRA AV. y DELLEPIANE, LUIS, TTE. GRAL.",AVENIDA,9,-34.65117757,-58.46739825
2018-0096,2018-08-31,22,FATAL,M,39,PEATON,AUTOMOVIL,"AUTOPISTA PRESIDENTE HÃ‰CTOR J. CÃMPORA y ROCA, CNEL. AV.",AUTOPISTA,8,-34.67152226,-58.44483258
2018-0097,2018-09-02,10,FATAL,F,35,AUTOMOVIL,OTRO,"VARELA AV. y RABANAL, FRANCISCO, INTENDENTE AV.",AVENIDA,8,-34.66128115,-58.43254025
2018-0098,2018-09-09,5,FATAL,M,55,AUTOMOVIL,AUTOMOVIL,"PAZ, GRAL. AV. y BERON DE ASTRADA",GRAL PAZ,8,-34.69640164,-58.47199387
2018-0098,2018-09-09,5,FATAL,M,54,AUTOMOVIL,AUTOMOVIL,"PAZ, GRAL. AV. y BERON DE ASTRADA",GRAL PAZ,8,-34.69640164,-58.47199387
2018-0099,2018-09-12,14,FATAL,M,18,PEATON,TRANSPORTE PUBLICO,RIVADAVIA AV. y PEDERNERA,AVENIDA,7,-34.62925068,-58.46411215
2018-0100,2018-09-20,10,FATAL,F,33,MOTO,AUTOMOVIL,"RAWSON DE DELLEPIANE, ELVIRA AV. 150",AVENIDA,1,-34.62367156,-58.36217754
2018-0101,2018-09-21,0,FATAL,M,29,AUTOMOVIL,OTRO,"PAZ, GRAL. AV. y ZAPIOLA",GRAL PAZ,12,-34.54073130,-58.48098594
2018-0102,2018-09-21,0,FATAL,M,20,MOTO,AUTOMOVIL,"FAMATINA y TABORDA, DIOGENES",CALLE,4,-34.64640709,-58.41083404
2018-0103,2018-09-27,17,FATAL,M,1,PEATON,MOTO,"CASTAÃ‘ARES AV. y BONORINO, ESTEBAN, CNEL. AV.",AVENIDA,7,-34.64446729,-58.44609828
2018-0104,2018-10-01,8,FATAL,M,22,MOTO,MOTO,AUTOPISTA 1 SUR PRESIDENTE ARTURO FRONDIZI y SUAREZ AV.,AUTOPISTA,4,-34.64035082,-58.37709334
2018-0105,2018-10-03,18,FATAL,F,56,PEATON,TRANSPORTE PUBLICO,NAZCA AV. y RIVADAVIA AV.,AVENIDA,7,-34.63070603,-58.46963952
2018-0106,2018-10-04,22,FATAL,M,27,MOTO,MOTO,"FIGUEROA ALCORTA, PRES. AV. y ECHEVERRIA",AVENIDA,13,-34.55161027,-58.43674281
2018-0107,2018-10-06,14,FATAL,F,62,PEATON,TRANSPORTE PUBLICO,RIVADAVIA AV. y JUJUY AV.,AVENIDA,3,-34.61011987,-58.40596860
2018-0108,2018-10-09,14,FATAL,M,37,MOTO,AUTOMOVIL,"DE LOS ITALIANOS AV. y GUEMES, MACACHA",AVENIDA,1,-34.60463618,-58.36154069
2018-0109,2018-10-10,22,FATAL,M,34,PEATON,TRANSPORTE PUBLICO,"TUCUMAN y ALEM, LEANDRO N. AV.",AVENIDA,1,-34.60066507,-58.37062179
2018-0110,2018-10-13,3,FATAL,M,60,PEATON,MOTO,"CORRIENTES AV. y GALLARDO, ANGEL AV.",AVENIDA,15,-34.60207186,-58.43220014
2018-0111,2018-10-19,12,FATAL,M,28,MOTO,TRANSPORTE PUBLICO,"AUTOPISTA PERITO MORENO & PERON, EVA  AV.",AUTOPISTA,9,-34.64949724,-58.46958442
2018-0112,2018-10-24,9,FATAL,F,28,MOTO,TRANSPORTE PUBLICO,MUÃ‘ECAS y SERRANO,CALLE,15,-34.59970903,-58.44671397
2018-0113,2018-10-25,11,FATAL,M,20,MOTO,TRANSPORTE PUBLICO,"ARTIGAS, JOSE GERVASIO, GRAL. y TRES ARROYOS",CALLE,11,-34.61474911,-58.47152163
2018-0114,2018-10-30,2,FATAL,M,23,MOTO,AUTOMOVIL,SOLIS e INDEPENDENCIA AV.,AVENIDA,1,-34.61807951,-58.39032921
2018-0115,2018-10-31,12,FATAL,M,42,PEATON,TRANSPORTE PUBLICO,"BOSCH, VENTURA y PAZ, GRAL. AV.",CALLE,9,-34.64297861,-58.52887773
2018-0116,2018-11-01,10,FATAL,M,48,PEATON,TRANSPORTE PUBLICO,"PAZ, GRAL. AV. 14800",GRAL PAZ,8,-34.67981324,-58.49371157
2018-0117,2018-11-04,8,FATAL,M,30,MOTO,MOTO,"PERON, EVA AV. 5321",AVENIDA,9,-34.66012327,-58.48266599
2018-0118,2018-11-05,14,FATAL,F,80,PEATON,MOTO,"PERON, JUAN DOMINGO, TTE. GENERAL y PUEYRREDON AV.",AVENIDA,3,-34.60774301,-58.40612253
2018-0119,2018-11-05,22,FATAL,F,32,PEATON,SD,"RABANAL, FRANCISCO, INTENDENTE AV. y SAN PEDRITO",AVENIDA,8,-34.66292532,-58.43613623
2018-0120,2018-11-09,13,FATAL,F,51,PEATON,AUTOMOVIL,MONROE y ALVAREZ THOMAS AV.,AVENIDA,12,-34.57208238,-58.48250732
2018-0121,2018-11-09,16,FATAL,F,72,PEATON,TRANSPORTE PUBLICO,RIVADAVIA AV. y MANZONI,AVENIDA,10,-34.63743280,-58.49945705
2018-0122,2018-11-12,1,FATAL,M,33,AUTOMOVIL,AUTOMOVIL,AUTOPISTA DELLEPIANE LUIS TTE. GRAL. y LARRAZABAL,AUTOPISTA,8,-34.67233407,-58.47743966
2018-0123,2018-11-12,3,FATAL,M,25,AUTOMOVIL,SD,"PAZ, GRAL. AV. y PERON, EVA AV.",GRAL PAZ,9,-34.67450313,-58.50251790
2018-0124,2018-11-15,19,FATAL,M,44,TRANSPORTE PUBLICO,TRANSPORTE PUBLICO,AUTOPISTA PERITO MORENO y RESERVISTAS ARGENTINOS,AUTOPISTA,9,-34.63682499,-58.52144411
2018-0125,2018-11-16,21,FATAL,M,29,PEATON,TRANSPORTE PUBLICO,SAENZ AV. y VENTANA,AVENIDA,4,-34.65084045,-58.41650465
2018-0126,2018-11-18,12,FATAL,M,27,MOTO,AUTOMOVIL,"PAZ, GRAL. AV. y FALCON, RAMON L.,CNEL.",GRAL PAZ,9,-34.64055918,-58.52994219
2018-0127,2018-11-19,9,FATAL,M,29,MOTO,MOTO,"PAZ, GRAL. AV. y DE LOS CONSTITUYENTES AV.",GRAL PAZ,12,-34.56919739,-58.50993046
2018-0128,2018-11-25,4,FATAL,M,49,AUTOMOVIL,TRANSPORTE PUBLICO,"PAZ, GRAL. AV. 11200",GRAL PAZ,9,-34.64592873,-58.52844623
2018-0128,2018-11-25,4,FATAL,F,39,AUTOMOVIL,TRANSPORTE PUBLICO,"PAZ, GRAL. AV. 11200",GRAL PAZ,9,-34.64592873,-58.52844623
2018-0129,2018-11-28,4,FATAL,M,37,MOTO,TRANSPORTE PUBLICO,"NEWBERY, JORGE AV. y GUEVARA",AVENIDA,15,-34.58695347,-58.45021367
2018-0130,2018-12-03,3,FATAL,M,38,MOTO,TRANSPORTE PUBLICO,GAONA AV. y SEGUROLA AV.,AVENIDA,10,-34.62770192,-58.49022072
2018-0131,2018-12-07,19,FATAL,M,29,MOTO,TRANSPORTE PUBLICO,"MADERO, EDUARDO AV. 550",AVENIDA,1,-34.60106568,-58.36860866
2018-0132,2018-12-12,8,FATAL,M,70,PEATON,TRANSPORTE PUBLICO,"AUTOPISTA ARTURO ILLIA y CASTILLO, RAMON S., PRES. AV.",AUTOPISTA,2,-34.57241534,-58.39490504
2018-0133,2018-12-12,14,FATAL,F,60,PEATON,TRANSPORTE PUBLICO,NAZCA AV. y RIVADAVIA AV.,AVENIDA,7,-34.63070603,-58.46963952
2018-0134,2018-12-12,21,FATAL,M,56,PEATON,MOTO,LA PLATA AV. y CASEROS AV.,AVENIDA,7,-34.64019887,-58.42349365
2018-0135,2018-12-18,14,FATAL,M,80,PEATON,TRANSPORTE PUBLICO,BELGRANO AV. y PERU,AVENIDA,1,-34.61265002,-58.37471802
2018-0136,2018-12-18,15,FATAL,F,70,PEATON,TRANSPORTE PUBLICO,RIVADAVIA AV. 7013,AVENIDA,7,-34.62913916,-58.46438789
2018-0137,2018-12-18,20,FATAL,M,29,MOTO,TRANSPORTE PUBLICO,"ALSINA, ADOLFO y SANTIAGO DEL ESTERO",CALLE,1,-34.61100424,-58.38481975
2018-0138,2018-12-21,9,FATAL,F,79,TRANSPORTE PUBLICO,TRANSPORTE PUBLICO,BERMUDEZ 1893,CALLE,10,-34.62073702,-58.50751833
2018-0139,2018-12-22,6,FATAL,M,28,MOTO,MOTO,SANTANDER 1974,CALLE,7,-34.63888084,-58.44682986
2018-0140,2018-12-22,8,FATAL,M,78,AUTOMOVIL,AUTOMOVIL,LANTERI JULIETA 1400,CALLE,1,-34.61381341,-58.36004650
2018-0141,2018-12-22,17,FATAL,M,75,PEATON,MOTO,MAZA e INDEPENDENCIA AV.,AVENIDA,5,-34.62085945,-58.41509546
2018-0142,2018-12-25,13,FATAL,M,32,TRANSPORTE PUBLICO,TRANSPORTE PUBLICO,"PAZ, GRAL. AV. 5172",GRAL PAZ,12,-34.57251072,-58.50997604
2018-0143,2018-12-29,5,FATAL,M,22,MOTO,AUTOMOVIL,"OLIVERA AV. y ALBERDI, JUAN BAUTISTA AV.",AVENIDA,10,-34.64047818,-58.48606475
2019-0001,2019-01-08,8,FATAL,M,25,MOTO,TRANSPORTE PUBLICO,"CASTILLO, RAMON S., PRES. AV. y CALLE 12 (NO OFICIAL)",AVENIDA,2,-34.57805810,-58.38526125
2019-0002,2019-01-09,4,FATAL,M,32,AUTOMOVIL,TRANSPORTE PUBLICO,"CASTAÃ‘ARES AV. y MORENO, PERITO AV.",AVENIDA,7,-34.65082149,-58.45463662
2019-0003,2019-01-12,8,FATAL,M,23,MOTO,AUTOMOVIL,SAN MARTIN AV. y TERRADA,AVENIDA,15,-34.59718073,-58.49121672
2019-0004,2019-01-14,19,FATAL,M,71,AUTOMOVIL,TRANSPORTE PUBLICO,"PERON, EVA AV. y MEDINA",AVENIDA,9,-34.65284605,-58.47325712
2019-0005,2019-01-19,12,FATAL,M,43,MOTO,TRANSPORTE PUBLICO,"JUSTO, JUAN B. AV. y ALVAREZ JONTE AV.",AVENIDA,10,-34.63382309,-58.52108101
2019-0006,2019-01-23,5,FATAL,F,12,PEATON,AUTOMOVIL,"OBLIGADO RAFAEL, AV.COSTANERA 4650",AVENIDA,14,-34.55509606,-58.41652702
2019-0007,2019-01-26,19,FATAL,M,35,MOTO,AUTOMOVIL,"MITRE, BARTOLOME y YATAY",CALLE,5,-34.61071660,-58.42891604
2019-0008,2019-01-30,22,FATAL,M,42,MOTO,OTRO,"PAZ, GRAL. AV. 16080",GRAL PAZ,8,-34.69156793,-58.47802293
2019-0009,2019-01-31,14,FATAL,M,34,MOTO,AUTOMOVIL,CHACABUCO y SAN JUAN AV.,AVENIDA,1,-34.62200207,-58.37564821
2019-0010,2019-02-02,7,FATAL,M,24,PEATON,AUTOMOVIL,DEL LIBERTADOR AV. 4100,AVENIDA,14,-34.56961468,-58.42668489
2019-0010,2019-02-02,7,FATAL,M,59,PEATON,AUTOMOVIL,DEL LIBERTADOR AV. 4100,AVENIDA,14,-34.56961468,-58.42668489
2019-0011,2019-02-10,1,FATAL,M,48,PEATON,AUTOMOVIL,"PAZ, GRAL. AV. y ALBERDI, JUAN BAUTISTA AV.",GRAL PAZ,9,-34.66252488,-58.51839930
2019-0012,2019-02-17,3,FATAL,M,31,MOTO,AUTOMOVIL,"CASTAÃ‘ARES AV. y GORDILLO, TIMOTEO",AVENIDA,8,-34.67665828,-58.48432691
2019-0013,2019-02-20,7,FATAL,M,39,PEATON,AUTOMOVIL,SALVIGNY y MOM,CALLE,7,-34.64457699,-58.43383830
2019-0014,2019-02-20,17,FATAL,M,69,MOTO,OTRO,"LAMARCA, EMILIO 5402",CALLE,11,-34.58657938,-58.51664939
2019-0015,2019-02-23,6,FATAL,M,21,AUTOMOVIL,OTRO,SAN MARTIN AV. 5638,AVENIDA,11,-34.59703502,-58.49613012
2019-0016,2019-02-24,2,FATAL,M,40,MOTO,TRANSPORTE PUBLICO,"CARRILLO, RAMON, DR. y FINOCHIETTO ENRIQUE DR.",CALLE,4,-34.63356284,-58.38313603
2019-0017,2019-03-03,7,FATAL,M,22,AUTOMOVIL,TRANSPORTE PUBLICO,MEXICO y PICHINCHA,CALLE,3,-34.61632317,-58.39914719
2019-0018,2019-03-03,23,FATAL,F,29,PEATON,AUTOMOVIL,"CANTILO, INT. y UDAONDO, GUILLERMO AV.",AUTOPISTA,13,-34.54048625,-58.44927253
2019-0019,2019-03-06,12,FATAL,M,19,MOTO,AUTOMOVIL,DEL LIBERTADOR AV. 6326,AVENIDA,13,-34.55374003,-58.45049163
2019-0020,2019-03-07,21,FATAL,M,43,MOTO,AUTOMOVIL,CHICLANA AV. 3444,AVENIDA,5,-34.63572989,-58.41288952
2019-0021,2019-03-15,22,FATAL,M,23,MOTO,AUTOMOVIL,BOYACA AV. y YERBAL,AVENIDA,7,-34.62561234,-58.45743597
2019-0022,2019-03-15,0,FATAL,M,41,AUTOMOVIL,SD,ENTRE RIOS AV. 1260,AVENIDA,1,-34.62352245,-58.39123782
2019-0023,2019-03-16,8,FATAL,M,34,AUTOMOVIL,OTRO,"PAZ, GRAL. AV. y JACQUES, AMADEO",GRAL PAZ,9,-34.63637963,-58.52922765
2019-0024,2019-03-19,7,FATAL,M,32,MOTO,TRANSPORTE PUBLICO,ANTARTIDA ARGENTINA AV. 1325,AVENIDA,1,-34.58541957,-58.37208118
2019-0025,2019-03-22,13,FATAL,M,27,PEATON,AUTOMOVIL,"MITRE, BARTOLOME y SANCHEZ DE BUSTAMANTE",CALLE,5,-34.60937557,-58.41458534
2019-0026,2019-03-28,7,FATAL,M,33,PEATON,TRANSPORTE PUBLICO,"FERNANDEZ DE LA CRUZ, F., GRAL. AV. y PAZ, GRAL. AV.",AVENIDA,8,-34.69153196,-58.47976785
2019-0027,2019-03-28,11,FATAL,M,37,BICICLETA,OTRO,SANTA FE AV. y AZCUENAGA,AVENIDA,2,-34.59511714,-58.39990285
2019-0028,2019-04-06,9,FATAL,F,45,PEATON,TRANSPORTE PUBLICO,"JUSTO, JUAN B. AV. y OROÃ‘O, NICASIO",AVENIDA,11,-34.60588536,-58.46051346
2019-0029,2019-04-07,10,FATAL,M,27,MOTO,OTRO,"FERNANDEZ DE LA CRUZ, F., GRAL. AV. y PAZ, GRAL. AV.",AVENIDA,8,-34.69153196,-58.47976785
2019-0030,2019-04-09,16,FATAL,M,25,MOTO,TRANSPORTE PUBLICO,"ALVAREZ, DONATO, TTE. GRAL. y YERBAL",CALLE,7,-34.62447891,-58.45457546
2019-0031,2019-04-12,19,FATAL,M,20,BICICLETA,TRANSPORTE PUBLICO,"CORDOBA AV. y MADERO, EDUARDO AV.",AVENIDA,1,-34.59832047,-58.36951669
2019-0032,2019-04-16,11,FATAL,F,83,PEATON,AUTOMOVIL,"CAMARONES y ALVAREZ, DONATO, TTE. GRAL. AV.",AVENIDA,11,-34.60443790,-58.46415322
2019-0033,2019-04-18,1,FATAL,M,25,MOTO,SD,"AUTOPISTA 25 DE MAYO y HUERGO, ING. AV.",AUTOPISTA,1,-34.62150748,-58.36607137
2019-0034,2019-04-21,9,FATAL,M,31,MOTO,OTRO,"MORENO, PERITO AV. 3050",AVENIDA,7,-34.65093074,-58.45537373
2019-0035,2019-04-23,14,FATAL,F,75,PEATON,BICICLETA,SUIPACHA 665,CALLE,1,-34.60053054,-58.37942637
2019-0036,2019-04-26,22,FATAL,M,34,MOTO,AUTOMOVIL,RIGLOS y FORMOSA,CALLE,6,-34.62147504,-58.43680440
2019-0037,2019-05-01,23,FATAL,M,17,MOTO,AUTOMOVIL,LA RIOJA e INDEPENDENCIA AV.,AVENIDA,3,-34.61971907,-58.40778291
2019-0038,2019-05-04,14,FATAL,F,42,PEATON,MOTO,"UDAONDO, GUILLERMO AV. y FIGUEROA ALCORTA, PRES. AV.",AVENIDA,13,-34.54628513,-58.45212523
2019-0039,2019-05-09,3,FATAL,M,28,MOTO,AUTOMOVIL,SAN PEDRITO AV. y DIRECTORIO AV.,AVENIDA,7,-34.63551751,-58.46749188
2019-0040,2019-05-09,12,FATAL,M,44,MOTO,SD,PUAN y SANTANDER,CALLE,7,-34.63679732,-58.44263580
2019-0041,2019-05-11,20,FATAL,F,78,AUTOMOVIL,OTRO,"ALBERDI, JUAN BAUTISTA AV. y ANDALGALA",AVENIDA,9,-34.65846419,-58.51140289
2019-0042,2019-05-14,15,FATAL,M,39,PEATON,TRANSPORTE PUBLICO,LIMA y CONSTITUCION,CALLE,1,-34.62465368,-58.38211431
2019-0043,2019-05-21,9,FATAL,F,46,BICICLETA,TRANSPORTE PUBLICO,"CORDOBA AV. y MADERO, EDUARDO AV.",AVENIDA,1,-34.59832047,-58.36951669
2019-0044,2019-05-27,12,FATAL,F,77,PEATON,MOTO,BOEDO AV. 650,AVENIDA,5,-34.62036547,-58.41635217
2019-0045,2019-06-03,7,FATAL,M,33,MOTO,TRANSPORTE PUBLICO,DEL LIBERTADOR AV. y REPUBLICA DE LA INDIA,AVENIDA,14,-34.57579669,-58.41316147
2019-0046,2019-06-04,9,FATAL,F,26,MOTO,AUTOMOVIL,"PAZ, GRAL. AV. y CABILDO AV.",GRAL PAZ,13,-34.53825652,-58.47617802
2019-0047,2019-06-06,10,FATAL,M,76,PEATON,TRANSPORTE PUBLICO,CASEROS AV. 1700,AVENIDA,4,-34.63330028,-58.38641783
2019-0048,2019-06-07,7,FATAL,M,32,MOTO,TRANSPORTE PUBLICO,AVELLANEDA AV. 1548,AVENIDA,6,-34.62038137,-58.45322169
2019-0049,2019-06-08,9,FATAL,F,72,PEATON,TRANSPORTE PUBLICO,CIUDAD DE LA PAZ y MENDOZA,CALLE,13,-34.56166498,-58.45849057
2019-0050,2019-06-08,23,FATAL,M,21,MOTO,TRANSPORTE PUBLICO,"SALGUERO, JERONIMO y HONDURAS AV.",AVENIDA,14,-34.59411677,-58.41829559
2019-0051,2019-06-11,10,FATAL,M,41,MOTO,AUTOMOVIL,"FILIBERTO, JUAN DE DIOS y OLAVARRIA",CALLE,4,-34.63832093,-58.36376488
2019-0053,2019-06-14,17,FATAL,M,49,AUTOMOVIL,AUTOMOVIL,ASTURIAS AV. y CASTAÃ‘ARES AV.,AVENIDA,8,-34.66004784,-58.46442668
2019-0054,2019-06-20,3,FATAL,M,21,MOTO,OTRO,GANDARA 2976,CALLE,15,-34.58428769,-58.48222035
2019-0055,2019-06-20,19,FATAL,M,47,MOTO,TRANSPORTE PUBLICO,"GUEVARA, TRINIDAD y MADERO, EDUARDO AV.",AVENIDA,1,-34.60283208,-58.36819005
2019-0056,2019-06-29,17,FATAL,F,75,PEATON,AUTOMOVIL,BOYACA AV. 305,AVENIDA,7,-34.62330939,-58.45877601
2019-0057,2019-07-05,19,FATAL,F,63,PEATON,AUTOMOVIL,ARTILLEROS y LA PAMPA,CALLE,13,-34.55760517,-58.44196498
2019-0058,2019-07-10,9,FATAL,M,39,MOTO,TRANSPORTE PUBLICO,AUTOPISTA PERITO MORENO e IRIGOYEN,AUTOPISTA,10,-34.63627822,-58.50622631
2019-0059,2019-07-13,22,FATAL,M,30,MOTO,TRANSPORTE PUBLICO,15 DE NOVIEMBRE DE 1889 y SANTIAGO DEL ESTERO,CALLE,1,-34.63099197,-58.38410880
2019-0060,2019-07-17,11,FATAL,F,78,PEATON,AUTOMOVIL,"ACOSTA, MARIANO AV. y FALCON, RAMON L.,CNEL.",AVENIDA,10,-34.63504312,-58.48100602
2019-0061,2019-07-17,18,FATAL,F,58,PEATON,TRANSPORTE PUBLICO,11 DE SEPTIEMBRE DE 1888 y MENDOZA,CALLE,13,-34.55781320,-58.45200171
2019-0062,2019-08-01,23,FATAL,F,60,PEATON,TRANSPORTE PUBLICO,"PINO, VIRREY DEL y CAMPOS, LUIS M. AV.",AVENIDA,13,-34.56201105,-58.44462132
2019-0063,2019-08-04,1,FATAL,M,30,MOTO,TRANSPORTE PUBLICO,FOREST AV. y MAURE,AVENIDA,15,-34.58711712,-58.45220688
2019-0064,2019-08-06,3,FATAL,M,20,MOTO,AUTOMOVIL,BOYACA AV. y AVELLANEDA AV.,AVENIDA,7,-34.62245140,-58.45962210
2019-0065,2019-08-08,16,FATAL,F,55,PEATON,TRANSPORTE PUBLICO,BARCO CENTENERA DEL y TILCARA,CALLE,4,-34.65414867,-58.41970850
2019-0066,2019-08-11,21,FATAL,M,40,PEATON,AUTOMOVIL,RIESTRA AV. y BOLIVAR (NO OFICIAL),AVENIDA,7,-34.64938031,-58.44187596
2019-0067,2019-08-14,15,FATAL,M,35,MOTO,TRANSPORTE PUBLICO,"CASTRO, EMILIO 4706",CALLE,10,-34.64276621,-58.49101637
2019-0068,2019-08-14,17,FATAL,M,53,MOTO,MOTO,27 DE FEBRERO AV. 5600,AVENIDA,8,-34.66256502,-58.42493829
2019-0069,2019-08-17,5,FATAL,M,43,MOTO,AUTOMOVIL,"GARAY, JUAN DE AV. 2874",AVENIDA,4,-34.62930162,-58.40489318
2019-0070,2019-08-22,12,FATAL,M,25,MOTO,BICICLETA,"SCALABRINI ORTIZ, RAUL AV. y GORRITI",AVENIDA,14,-34.59217875,-58.42686680
2019-0071,2019-08-27,11,FATAL,M,32,PEATON,TRANSPORTE PUBLICO,PRIMERA JUNTA y OLIVERA AV.,AVENIDA,9,-34.65620398,-58.47961100
2019-0072,2019-08-28,6,FATAL,M,22,AUTOMOVIL,AUTOMOVIL,"ALBERDI, JUAN BAUTISTA AV. y AZUL",AVENIDA,10,-34.63524207,-58.47439934
2019-0073,2019-08-29,1,FATAL,M,29,AUTOMOVIL,OTRO,ALVAREZ THOMAS AV. 1788,AVENIDA,15,-34.57926018,-58.46711912
2019-0074,2019-08-29,9,FATAL,M,35,MOTO,TRANSPORTE PUBLICO,"LUGONES, LEOPOLDO AV. y PAZ, GRAL. AV.",AUTOPISTA,13,-34.53465378,-58.46514781
2019-0075,2019-08-30,23,FATAL,M,31,MOTO,TRANSPORTE PUBLICO,SAN ANTONIO y LUJAN,CALLE,4,-34.65584079,-58.37571078
2019-0076,2019-09-05,18,FATAL,F,29,MOTO,TRANSPORTE PUBLICO,AUTOPISTA 1 SUR PRESIDENTE ARTURO FRONDIZI y DON PEDRO DE MENDOZA AV.,AUTOPISTA,4,-34.65429986,-58.37157668
2019-0077,2019-09-08,3,FATAL,F,28,PEATON,AUTOMOVIL,"FIGUEROA ALCORTA, PRES. AV. y TAGLE",AVENIDA,14,-34.58070186,-58.39811256
2019-0078,2019-09-12,8,FATAL,F,72,PEATON,TRANSPORTE PUBLICO,"EINSTEIN, ALBERTO y ALCORTA, AMANCIO AV.",AVENIDA,4,-34.65417740,-58.41125934
2019-0079,2019-09-17,5,FATAL,M,57,MOTO,TRANSPORTE PUBLICO,AGRELO y COLOMBRES,CALLE,5,-34.61866836,-58.41822901
2019-0080,2019-09-17,18,FATAL,M,76,PEATON,MOTO,"CABILDO AV. y PAZ, GRAL. AV.",GRAL PAZ,13,-34.53825652,-58.47617802
2019-0081,2019-09-23,16,FATAL,M,67,PEATON,TRANSPORTE PUBLICO,ELCANO AV. 4300,AVENIDA,15,-34.58623761,-58.46141281
2019-0082,2019-09-25,7,FATAL,M,47,BICICLETA,TRANSPORTE PUBLICO,"RABANAL, FRANCISCO, INTENDENTE AV. 2428",AVENIDA,8,-34.66119740,-58.42985146
2019-0083,2019-09-26,8,FATAL,M,73,AUTOMOVIL,AUTOMOVIL,MONTE y CORVALAN,CALLE,9,-34.65839090,-58.48457413
2019-0084,2019-09-27,11,FATAL,F,40,BICICLETA,TRANSPORTE PUBLICO,TANDIL y LAFUENTE,CALLE,7,-34.63628186,-58.46572884
2019-0085,2019-10-09,22,FATAL,M,20,BICICLETA,OTRO,CARDOSO y BACACAY,CALLE,10,-34.63419130,-58.49261744
2019-0086,2019-10-15,14,FATAL,M,29,MOTO,TRANSPORTE PUBLICO,CORRIENTES AV. 6700,AVENIDA,15,-34.58841560,-58.45283186
2019-0087,2019-10-21,21,FATAL,M,41,MOTO,MOTO,ALVAREZ THOMAS AV. y MENDOZA,AVENIDA,12,-34.57418656,-58.47973681
2019-0088,2019-10-22,20,FATAL,M,27,PEATON,TRANSPORTE PUBLICO,"ALCORTA, AMANCIO AV. y BONAVENA, OSCAR NATALIO",AVENIDA,4,-34.65076549,-58.40623949
2019-0089,2019-10-23,15,FATAL,F,92,PEATON,TRANSPORTE PUBLICO,"BROWN, ALTE. AV. y BLANES, JUAN MANUEL",AVENIDA,4,-34.63107887,-58.36244648
2019-0090,2019-10-24,18,FATAL,M,67,PEATON,MOTO,"ALBERDI, JUAN BAUTISTA AV. 5455",AVENIDA,9,-34.64868027,-58.49962423
2019-0091,2019-11-01,20,FATAL,M,35,PEATON,TRANSPORTE PUBLICO,"JUSTO, JUAN B. AV. y CAMARGO",AVENIDA,15,-34.59559816,-58.44551437
2019-0092,2019-11-03,10,FATAL,M,37,PEATON,TRANSPORTE PUBLICO,"BRIN, MINISTRO y SUAREZ",CALLE,4,-34.63420319,-58.35608181
2019-0093,2019-11-13,11,FATAL,M,16,BICICLETA,OTRO,"NIZA y JUSTO, JUAN B. AV.",AVENIDA,11,-34.60907662,-58.46483679
2019-0094,2019-11-18,14,FATAL,F,32,MOTO,OTRO,CAMARGO y SERRANO,CALLE,15,-34.59724326,-58.44368628
2019-0095,2019-11-20,15,FATAL,M,31,MOTO,TRANSPORTE PUBLICO,AUTOPISTA 1 SUR PRESIDENTE ARTURO FRONDIZI y CASEROS AV.,AUTOPISTA,1,-34.62907067,-58.37864583
2019-0096,2019-11-22,19,FATAL,M,73,PEATON,TRANSPORTE PUBLICO,CASEROS AV. y PIEDRAS,AVENIDA,1,-34.62726382,-58.37560352
2019-0097,2019-11-25,8,FATAL,F,23,MOTO,OTRO,AUTOPISTA PERITO MORENO KM. 5.6,AUTOPISTA,9,-34.64815069,-58.47721439
2019-0098,2019-11-25,14,FATAL,F,61,TRANSPORTE PUBLICO,TRANSPORTE PUBLICO,GUZMAN 365,AVENIDA,15,-34.58984288,-58.45134029
2019-0100,2019-12-05,17,FATAL,M,38,MOTO,AUTOMOVIL,DE LOS CONSTITUYENTES AV. 4300,AVENIDA,12,-34.58368803,-58.49040794
2019-0101,2019-12-17,4,FATAL,M,25,MOTO,MOTO,"MORENO, PERITO AV. y TILCARA AV.",AVENIDA,4,-34.64991178,-58.42102679
2019-0102,2019-12-17,14,FATAL,M,18,MOTO,AUTOMOVIL,"IBARROLA y GORDILLO, TIMOTEO",CALLE,9,-34.64143926,-58.52219407
2019-0103,2019-12-18,14,FATAL,M,24,MOTO,MOTO,"PAZ, GRAL. AV. y GRIVEO",GRAL PAZ,11,-34.59471640,-58.52169422
2019-0104,2019-12-21,4,FATAL,F,23,MOTO,AUTOMOVIL,RIVADAVIA AV. y PERGAMINO,AVENIDA,10,-34.63206174,-58.47460416
2019-0105,2019-05-05,11,FATAL,F,82,PEATON,AUTOMOVIL,SANTO TOME y SEGUROLA AV.,AVENIDA,10,-34.61520391,-58.50512382
2020-0001,2020-01-04,10,FATAL,F,87,PEATON,AUTOMOVIL,URIARTE y LOYOLA,CALLE,15,-34.59213355,-58.43910409
2020-0002,2020-01-05,20,FATAL,M,36,MOTO,OTRO,SARAZA y VARELA AV.,AVENIDA,7,-34.64646409,-58.45019436
2020-0003,2020-01-11,6,FATAL,M,44,PEATON,AUTOMOVIL,RIVADAVIA AV. y COMBATE DE LOS POZOS,AVENIDA,3,-34.60927582,-58.39337644
2020-0004,2020-01-14,21,FATAL,M,82,PEATON,TRANSPORTE PUBLICO,RODRIGUEZ PEÃ‘A y RIVADAVIA AV.,AVENIDA,1,-34.60919284,-58.39055614
2020-0005,2020-01-14,6,FATAL,M,25,MOTO,TRANSPORTE PUBLICO,24 DE NOVIEMBRE y SAN JUAN AV.,AVENIDA,3,-34.62477021,-58.41036975
2020-0006,2020-01-20,12,FATAL,M,23,MOTO,TRANSPORTE PUBLICO,LAFUENTE AV. 2250,AVENIDA,8,-34.65412546,-58.44925765
2020-0007,2020-01-27,0,FATAL,M,52,PEATON,MOTO,CHILE y LIMA,CALLE,1,-34.61648696,-58.38156850
2020-0008,2020-01-30,7,FATAL,M,49,MOTO,TRANSPORTE PUBLICO,"CORDOBA AV. y JAURES, JEAN",AVENIDA,2,-34.59804521,-58.40662899
2020-0009,2020-02-04,14,FATAL,M,48,PEATON,AUTOMOVIL,"PERON, JUAN DOMINGO, TTE. GENERAL y SALGUERO, JERONIMO",CALLE,5,-34.60600850,-58.41985649
2020-0010,2020-02-08,5,FATAL,M,26,MOTO,OTRO,9 DE JULIO AV. y SAN JUAN AV.,AVENIDA,1,-34.62214953,-58.38099833
2020-0011,2020-02-12,11,FATAL,M,31,MOTO,TRANSPORTE PUBLICO,COLOMBRES 466,CALLE,5,-34.61823178,-58.41803309
2020-0012,2020-02-18,21,FATAL,F,66,PEATON,MOTO,MEXICO 2860,CALLE,3,-34.61783553,-58.40604003
2020-0013,2020-02-20,12,FATAL,F,58,PEATON,MOTO,COMBATIENTES DE MALVINAS AV. y TRIUNVIRATO AV.,AVENIDA,15,-34.57994061,-58.47549929
2020-0014,2020-02-27,2,FATAL,M,39,MOTO,TRANSPORTE PUBLICO,BERMUDEZ y NOGOYA,CALLE,11,-34.61600366,-58.51398484
2020-0015,2020-02-28,14,FATAL,M,29,MOTO,TRANSPORTE PUBLICO,BRASIL AV. y PASEO COLON AV.,AVENIDA,1,-34.62519403,-58.36797542
2020-0016,2020-02-29,13,FATAL,M,68,PEATON,TRANSPORTE PUBLICO,"ALEM, LEANDRO N. AV. 770",AVENIDA,1,-34.59879316,-58.37133616
2020-0017,2020-03-05,23,FATAL,M,32,PEATON,AUTOMOVIL,BELGRANO AV. y RINCON,AVENIDA,3,-34.61413568,-58.39613805
2020-0018,2020-03-09,14,FATAL,M,31,MOTO,OTRO,"UDAONDO, GUILLERMO AV. 901",AVENIDA,13,-34.54200276,-58.44903073
2020-0019,2020-03-10,21,FATAL,F,80,PEATON,AUTOMOVIL,CONSTITUCION y CASTRO,CALLE,5,-34.62846670,-58.41972364
2020-0020,2020-03-13,17,FATAL,F,74,PEATON,MOTO,"PUEYRREDON AV. y GOMEZ, VALENTIN",AVENIDA,3,-34.60557123,-58.40571596
2020-0021,2020-03-14,16,FATAL,F,87,PEATON,AUTOMOVIL,"BRAVO, MARIO 1279",CALLE,2,-34.59488319,-58.41451590
2020-0022,2020-04-07,6,FATAL,M,44,AUTOMOVIL,TRANSPORTE PUBLICO,AUTOPISTA DELLEPIANE LUIS TTE. GRAL. y ESCALADA AV.,AUTOPISTA,9,-34.66245085,-58.47297505
2020-0023,2020-04-09,18,FATAL,M,44,AUTOMOVIL,TRANSPORTE PUBLICO,"ARAOZ DE LAMADRID, GREGORIO, GRAL. y BROWN, ALTE. AV.",AVENIDA,4,-34.63695178,-58.35791192
2020-0024,2020-04-24,7,FATAL,M,53,AUTOMOVIL,AUTOMOVIL,MURGUIONDO 1339,CALLE,9,-34.65177305,-58.50801713
2020-0025,2020-05-12,5,FATAL,M,22,PEATON,AUTOMOVIL,RIVADAVIA AV. 2551,AVENIDA,3,-34.60975108,-58.40258477
2020-0026,2020-05-17,6,FATAL,M,28,MOTO,OTRO,SD,AUTOPISTA,14,.,.
2020-0027,2020-05-18,8,FATAL,M,76,PEATON,TRANSPORTE PUBLICO,"DELLEPIANE, LUIS, TTE. GRAL. y MONTIEL",AVENIDA,8,-34.68454456,-58.48267426
2020-0028,2020-05-19,10,FATAL,M,91,PEATON,TRANSPORTE PUBLICO,"SCALABRINI ORTIZ, RAUL AV. y WARNES AV.",AVENIDA,15,-34.60221948,-58.44248936
2020-0029,2020-06-10,14,FATAL,M,80,PEATON,TRANSPORTE PUBLICO,"PAZ, GRAL. AV. y ROFFO, ANGEL H., DR.",GRAL PAZ,9,-34.63886726,-58.52909134
2020-0030,2020-06-16,15,FATAL,M,40,MOTO,OTRO,SAN MARTIN AV. 1550,AVENIDA,6,-34.60646580,-58.45158942
2020-0031,2020-06-30,8,FATAL,M,29,MOTO,TRANSPORTE PUBLICO,"GARZON, EUGENIO, GRAL. AV. y LARRAYA",AVENIDA,9,-34.65788529,-58.49344309
2020-0032,2020-07-10,23,FATAL,M,21,MOTO,AUTOMOVIL,CORRIENTES AV. y SERRANO,AVENIDA,15,-34.59635137,-58.44259166
2020-0033,2020-07-19,6,FATAL,M,32,AUTOMOVIL,OTRO,"PAZ, GRAL. AV. y DEL LIBERTADOR AV.",GRAL PAZ,13,-34.53476874,-58.46743471
2020-0034,2020-08-02,3,FATAL,F,40,PEATON,AUTOMOVIL,"MITRE, BARTOLOME y ANCHORENA, TOMAS MANUEL DE, DR.",CALLE,3,-34.60922259,-58.41178158
2020-0035,2020-08-04,5,FATAL,M,40,MOTO,TRANSPORTE PUBLICO,AUTOPISTA 25 DE MAYO y PUMACAHUA,AUTOPISTA,7,-34.63638927,-58.45068621
2020-0036,2020-08-07,18,FATAL,M,72,PEATON,MOTO,"SCALABRINI ORTIZ, RAUL AV. y PARAGUAY",AVENIDA,14,-34.58778790,-58.42016954
2020-0037,2020-08-29,4,FATAL,M,38,PEATON,AUTOMOVIL,"FERNANDEZ DE LA CRUZ, F., GRAL. AV. y VARELA AV.",AVENIDA,8,-34.65554754,-58.43850413
2020-0038,2020-08-30,4,FATAL,M,46,AUTOMOVIL,AUTOMOVIL,"LAS HERAS GENERAL AV. y DIAZ, CNEL. AV.",AVENIDA,14,-34.58345898,-58.40617526
2020-0038,2020-08-30,4,FATAL,M,64,AUTOMOVIL,AUTOMOVIL,"LAS HERAS GENERAL AV. y DIAZ, CNEL. AV.",AVENIDA,14,-34.58345898,-58.40617526
2020-0039,2020-09-01,19,FATAL,M,44,PEATON,TRANSPORTE PUBLICO,MURGUIONDO,CALLE,9,.,.
2020-0040,2020-09-12,3,FATAL,M,37,AUTOMOVIL,OTRO,"CASTILLO, RAMON S., PRES. AV. y CALLE 12 (NO OFICIAL)",AVENIDA,2,-34.57805810,-58.38526125
2020-0041,2020-09-28,1,FATAL,M,34,MOTO,TRANSPORTE PUBLICO,"CURAPALIGUE y PERON, EVA AV.",AVENIDA,7,-34.63491705,-58.44750470
2020-0042,2020-09-29,17,FATAL,F,53,PEATON,TRANSPORTE PUBLICO,"DIAZ, ANA y SOLDADO DE LA FRONTERA AV.",AVENIDA,8,-34.68192648,-58.46745752
2020-0043,2020-09-30,17,FATAL,M,64,PEATON,TRANSPORTE PUBLICO,"ALEM, LEANDRO N. AV. y PARAGUAY",AVENIDA,1,-34.59717942,-58.37202621
2020-0044,2020-10-05,0,FATAL,M,43,AUTOMOVIL,AUTOMOVIL,LA PLATA AV. e INDEPENDENCIA AV.,AVENIDA,6,-34.62207347,-58.42779702
2020-0045,2020-10-19,3,FATAL,M,50,AUTOMOVIL,TRANSPORTE PUBLICO,"PAZ, GRAL. AV. y 27 DE FEBRERO AV.",GRAL PAZ,8,-34.70524971,-58.46244952
2020-0046,2020-10-27,21,FATAL,M,41,MOTO,MOTO,"NAZCA AV. y CARRANZA, ADOLFO P.",AVENIDA,11,-34.60776782,-58.48440160
2020-0047,2020-10-27,14,FATAL,M,15,PEATON,TRANSPORTE PUBLICO,AUTOPISTA PRESIDENTE HÃ‰CTOR J. CÃMPORA y LACARRA AV.,AUTOPISTA,9,-34.65174801,-58.46668375
2020-0048,2020-10-29,20,FATAL,M,41,MOTO,OTRO,DORREGO AV. 614,AVENIDA,15,-34.59322448,-58.44958780
2020-0049,2020-10-30,20,FATAL,M,36,PEATON,AUTOMOVIL,"DEL LIBERTADOR AV. y RAMOS MEJIA, JOSE MARIA, DR. AV.",AVENIDA,1,-34.59276462,-58.37533517
2020-0050,2020-11-01,22,FATAL,F,28,PEATON,MOTO,SANTA FE AV. y GODOY CRUZ,AVENIDA,14,-34.57866344,-58.42525456
2020-0051,2020-11-05,0,FATAL,M,49,MOTO,AUTOMOVIL,AVELLANEDA AV. y MERCEDES,AVENIDA,10,-34.62981124,-58.48493828
2020-0052,2020-11-07,6,FATAL,M,44,BICICLETA,TRANSPORTE PUBLICO,TUCUMAN y PUEYRREDON AV.,AVENIDA,3,-34.60183884,-58.40480504
2020-0053,2020-11-09,3,FATAL,M,27,AUTOMOVIL,AUTOMOVIL,"ALCORTA, AMANCIO AV. y EINSTEIN, ALBERTO",AVENIDA,4,-34.65417740,-58.41125934
2020-0054,2020-11-19,9,FATAL,M,59,BICICLETA,AUTOMOVIL,INCLAN y ALBERTI,CALLE,4,-34.62977080,-58.39956546
2020-0055,2020-11-19,12,FATAL,M,91,PEATON,TRANSPORTE PUBLICO,OLAZABAL AV. 5437,AVENIDA,12,-34.57868970,-58.49005682
2020-0056,2020-11-21,13,FATAL,F,34,MOTO,TRANSPORTE PUBLICO,"PAZ, GRAL. AV. y ROCA, CNEL. AV.",GRAL PAZ,8,-34.69843756,-58.47064556
2020-0057,2020-11-23,7,FATAL,M,84,PEATON,AUTOMOVIL,"NAZCA AV. y VIALE, LUIS",AVENIDA,11,-34.61945902,-58.47501560
2020-0058,2020-11-24,16,FATAL,M,57,PEATON,AUTOMOVIL,"OLIVERA AV. y FALCON, RAMON L.,CNEL.",AVENIDA,10,-34.63652467,-58.48727942
2020-0059,2020-12-01,6,FATAL,F,49,PEATON,TRANSPORTE PUBLICO,BRASIL 1100,CALLE,1,-34.62794241,-58.37951690
2020-0060,2020-12-03,20,FATAL,F,69,PEATON,MOTO,"HOMERO y PERON, EVA AV.",AVENIDA,9,-34.65672199,-58.47750832
2020-0061,2020-12-03,14,FATAL,M,45,MOTO,TRANSPORTE PUBLICO,"CANTILO, INT. y UDAONDO, GUILLERMO AV.",AUTOPISTA,13,-34.54048625,-58.44927253
2020-0062,2020-12-04,17,FATAL,M,47,BICICLETA,TRANSPORTE PUBLICO,MORENO 1845,CALLE,3,-34.61253541,-58.39246272
2020-0063,2020-12-05,7,FATAL,M,38,PEATON,MOTO,NUEVA YORK y ALTA GRACIA,CALLE,11,-34.61047001,-58.52783814
2020-0063,2020-12-05,7,FATAL,M,21,MOTO,MOTO,NUEVA YORK y ALTA GRACIA,CALLE,11,-34.61047001,-58.52783814
2020-0065,2020-12-05,16,FATAL,M,24,MOTO,AUTOMOVIL,"PAZ, GRAL. AV. y GOYENECHE, ROBERTO PARQUE AV.",GRAL PAZ,12,-34.54836855,-58.49332664
2020-0066,2020-12-07,4,FATAL,M,27,MOTO,OTRO,AUTOPISTA PERITO MORENO (ALTURA ESTACION DE TREN VILLA LURO),AUTOPISTA,10,-34.63593897,-58.50178784
2020-0067,2020-12-11,22,FATAL,M,51,PEATON,TRANSPORTE PUBLICO,SAENZ AV. y BEAZLEY,AVENIDA,4,-34.65476216,-58.41657793
2020-0068,2020-12-12,20,FATAL,M,71,MOTO,AUTOMOVIL,DEL LIBERTADOR AV. y AUSTRIA,AVENIDA,2,-34.58307887,-58.39731474
2020-0069,2020-12-15,5,FATAL,M,25,MOTO,TRANSPORTE PUBLICO,"INDEPENDENCIA AV. y SAENZ PEÃ‘A, LUIS, PRES.",AVENIDA,1,-34.61790839,-58.38746381
2020-0070,2020-12-17,15,FATAL,F,81,PEATON,TRANSPORTE PUBLICO,"CALLAO AV. y LAS HERAS, GENERAL",AVENIDA,2,-34.59176378,-58.39189441
2020-0071,2020-12-17,23,FATAL,M,4,PEATON,AUTOMOVIL,SAN PEDRITO AV. y DIRECTORIO AV.,AVENIDA,7,-34.63551751,-58.46749188
2020-0072,2020-12-19,3,FATAL,M,42,BICICLETA,AUTOMOVIL,"JUJUY AV. y CALVO, CARLOS",AVENIDA,3,-34.62113271,-58.40280471
2020-0073,2020-12-20,7,FATAL,M,56,MOTO,OTRO,27 DE FEBRERO AV. y ESCALADA AV.,AVENIDA,8,-34.68475866,-58.44451316
2020-0074,2020-12-20,21,FATAL,M,39,AUTOMOVIL,AUTOMOVIL,BOGOTA y NAZCA AV.,AVENIDA,7,-34.62742408,-58.47110424
2020-0075,2020-12-23,14,FATAL,M,23,PEATON,TRANSPORTE PUBLICO,CORRIENTES AV. y 9 DE JULIO AV.,AVENIDA,1,-34.60373898,-58.38220928
2020-0076,2020-12-24,12,FATAL,F,78,AUTOMOVIL,TRANSPORTE PUBLICO,ALVAREZ JONTE AV. y CHIVILCOY,AVENIDA,10,-34.61565025,-58.49794468
2020-0077,2020-12-25,6,FATAL,F,30,MOTO,AUTOMOVIL,SAN MARTIN AV. y PUNTA ARENAS,AVENIDA,15,-34.60111373,-58.47220945
2020-0077,2020-12-25,6,FATAL,F,24,MOTO,AUTOMOVIL,SAN MARTIN AV. y PUNTA ARENAS,AVENIDA,15,-34.60111373,-58.47220945
2020-0078,2020-12-25,5,FATAL,M,26,BICICLETA,TRANSPORTE PUBLICO,BARCO CENTENERA DEL 1118,CALLE,7,-34.63217813,-58.43706741
2020-0079,2020-12-27,4,FATAL,M,28,MOTO,OTRO,"PAZ, GRAL. AV. y GOYENECHE, ROBERTO PARQUE AV.",GRAL PAZ,12,-34.54836855,-58.49332664
2021-0001,2021-01-06,18,FATAL,M,36,MOTO,AUTOMOVIL,AU FRONDIZI KM. 3,AUTOPISTA,1,-34.62622851,-58.37960727
2021-0002,2021-01-07,10,FATAL,F,47,MOTO,TRANSPORTE PUBLICO,"CASTRO, EMILIO AV. y MURGUIONDO",AVENIDA,9,-34.64972472,-58.51061062
2021-0003,2021-01-10,7,FATAL,M,27,MOTO,OTRO,AUTOPISTA 25 DE MAYO KM. 3.7,AUTOPISTA,7,-34.62941648,-58.43052224
2021-0004,2021-01-11,9,FATAL,F,61,PEATON,TRANSPORTE PUBLICO,CASEROS AV. y GUARANI,AVENIDA,5,-34.63866836,-58.41455544
2021-0005,2021-01-11,21,FATAL,M,73,PEATON,AUTOMOVIL,"PERON, EVA AV. 3800",AVENIDA,9,-34.64730145,-58.46774439
2021-0006,2021-01-12,21,FATAL,F,23,MOTO,TRANSPORTE PUBLICO,AUTOPISTA ARTURO ILLIA y SARMIENTO AV.,AUTOPISTA,14,-34.56726817,-58.40786274
2021-0007,2021-01-18,10,FATAL,M,84,MOTO,MOTO,DE LOS CONSTITUYENTES AV. y GIRIBONE,AVENIDA,15,-34.58622275,-58.48744301
2021-0008,2021-01-22,23,FATAL,M,28,PEATON,TRANSPORTE PUBLICO,"SAENZ AV. y RABANAL, FRANCISCO, INTENDENTE AV.",AVENIDA,4,-34.65476216,-58.41657793
2021-0009,2021-01-23,5,FATAL,M,31,MOTO,OTRO,PAYSANDU y GAONA AV.,AVENIDA,6,-34.61134937,-58.45351111
2021-0010,2021-01-23,8,FATAL,M,28,MOTO,AUTOMOVIL,"PAZ, GRAL. AV. y BALBIN, RICARDO, DR. AV.",GRAL PAZ,12,-34.54979510,-58.50073810
2021-0011,2021-01-27,1,FATAL,M,21,PEATON,AUTOMOVIL,SANTA FE AV. 1675,AVENIDA,2,-34.59564871,-58.39144148
2021-0012,2021-01-29,20,FATAL,M,22,PEATON,AUTOMOVIL,"DELLEPIANE, LUIS, TTE. GRAL. y GUAMINI",AUTOPISTA,8,-34.68385968,-58.48191128
2021-0013,2021-01-31,6,FATAL,M,41,MOTO,OTRO,"FALCON, RAMON L.,CNEL. y OLIVERA AV.",AVENIDA,10,-34.63652467,-58.48727942
2021-0014,2021-02-02,0,FATAL,M,28,PEATON,AUTOMOVIL,SAN MARTIN AV. y NOGOYA,AVENIDA,15,-34.59779521,-58.48328708
2021-0015,2021-02-06,3,FATAL,M,26,MOTO,OTRO,SAN MARTIN AV. y TINOGASTA,AVENIDA,15,-34.59724990,-58.49018543
2021-0016,2021-02-14,5,FATAL,M,22,AUTOMOVIL,OTRO,"FERNANDEZ DE LA CRUZ, F., GRAL. AV. y DE LA TORRE, LISANDRO",AVENIDA,8,-34.68482689,-58.47230127
2021-0017,2021-02-17,4,FATAL,M,33,MOTO,TRANSPORTE PUBLICO,SALTA y CASEROS AV.,AVENIDA,1,-34.63168269,-58.38262614
2021-0018,2021-02-20,19,FATAL,M,36,PEATON,AUTOMOVIL,"JAURES, JEAN y PERON, JUAN DOMINGO, TTE. GENERAL",CALLE,3,-34.60793518,-58.41047268
2021-0019,2021-02-21,1,FATAL,M,30,MOTO,OTRO,"TRIUNVIRATO AV. y LARRALDE, CRISOLOGO AV.",AVENIDA,12,-34.56353635,-58.49659234
2021-0020,2021-02-21,15,FATAL,F,42,PEATON,TRANSPORTE PUBLICO,POTOSI y GASCON,CALLE,5,-34.60727189,-58.42462955
2021-0021,2021-02-26,5,FATAL,M,39,MOTO,OTRO,"YRIGOYEN, HIPOLITO y 24 DE NOVIEMBRE",CALLE,3,-34.61185625,-58.41168345
2021-0022,2021-02-28,12,FATAL,M,68,TRANSPORTE PUBLICO,SD,DEL LIBERTADOR AV. y ROOSEVELT FRANKLIN D.,AVENIDA,13,-34.55217303,-58.45157681
2021-0023,2021-03-01,9,FATAL,M,24,MOTO,TRANSPORTE PUBLICO,SD,AUTOPISTA,4,.,.
2021-0024,2021-03-03,16,FATAL,M,5,BICICLETA,TRANSPORTE PUBLICO,"PERON, EVA AV. y PIEDRA BUENA AV.",AVENIDA,9,-34.67006054,-58.49573651
2021-0025,2021-03-11,3,FATAL,M,37,MOTO,OTRO,"PAZ, GRAL. AV. y AUTOPISTA DELLEPIANE LUIS TTE. GRAL.",GRAL PAZ,8,-34.68795245,-58.48695354
2021-0026,2021-03-15,2,FATAL,M,36,MOTO,OTRO,"AUTOPISTA 1 SUR PRESIDENTE ARTURO FRONDIZI y QUINQUELA MARTIN, BENITO",AUTOPISTA,4,-34.64449357,-58.37562539
2021-0027,2021-03-16,15,FATAL,F,19,MOTO,TRANSPORTE PUBLICO,"PAZ, GRAL. AV. y DONADO",GRAL PAZ,12,-34.54795581,-58.49491054
2021-0028,2021-03-29,17,FATAL,M,23,PEATON,TRANSPORTE PUBLICO,"COREA AV. y TORRES Y TENORIO, PRES.",AVENIDA,7,-34.64357704,-58.44147621
2021-0029,2021-03-31,18,FATAL,M,26,AUTOMOVIL,AUTOMOVIL,"FALCON, RAMON L.,CNEL. y SAN PEDRITO AV.",AVENIDA,7,-34.63215432,-58.46899119
2021-0030,2021-04-03,18,FATAL,M,36,PEATON,TRANSPORTE PUBLICO,FINOCHIETTO ENRIQUE DR. 1623,CALLE,4,-34.63455776,-58.38685612
2021-0031,2021-04-07,10,FATAL,F,68,PEATON,TRANSPORTE PUBLICO,9 DE JULIO AV. e INDEPENDENCIA AV.,AVENIDA,1,-34.61765323,-58.38113667
2021-0032,2021-04-10,19,FATAL,M,60,PEATON,MOTO,"CANTILO, INT. y GUIRALDES, INT.",AUTOPISTA,13,-34.54538956,-58.44112678
2021-0033,2021-04-14,17,FATAL,M,33,AUTOMOVIL,OTRO,AUTOPISTA 25 DE MAYO y BOEDO AV.,AUTOPISTA,5,-34.62743346,-58.41595919
2021-0034,2021-04-19,14,FATAL,F,26,MOTO,TRANSPORTE PUBLICO,"ALCORTA, AMANCIO AV. y ZAVALETA",AVENIDA,4,-34.64546845,-58.40184094
2021-0035,2021-05-03,9,FATAL,M,24,MOTO,TRANSPORTE PUBLICO,"JANER, ANA MARIA y LAFUENTE AV.",AVENIDA,8,-34.65679806,-58.44642231
2021-0036,2021-05-09,6,FATAL,M,36,MOTO,OTRO,"PAZ, GRAL. AV. y MOSCONI GENERAL AV.",GRAL PAZ,11,-34.59798754,-58.52340614
2021-0037,2021-05-11,7,FATAL,F,58,PEATON,TRANSPORTE PUBLICO,"MONROE y BALBIN, RICARDO, DR. AV.",AVENIDA,13,-34.56219075,-58.46649069
2021-0038,2021-05-14,11,FATAL,F,44,MOTO,TRANSPORTE PUBLICO,"JUSTO, JUAN B. AV. y SANTA FE AV.",AVENIDA,14,-34.57816791,-58.42653328
2021-0039,2021-05-15,12,FATAL,M,86,BICICLETA,AUTOMOVIL,"OLIDEN y ALBERDI, JUAN BAUTISTA AV.",AVENIDA,9,-34.65303372,-58.50407099
2021-0040,2021-05-20,5,FATAL,M,27,MOTO,AUTOMOVIL,"PAZ, GRAL. AV. y DEL LIBERTADOR AV.",GRAL PAZ,13,-34.53476874,-58.46743471
2021-0041,2021-05-20,8,FATAL,M,75,PEATON,TRANSPORTE PUBLICO,DEL LIBERTADOR AV. y CASARES AV.,AVENIDA,14,-34.57728060,-58.40986646
2021-0042,2021-05-21,5,FATAL,M,39,PEATON,TRANSPORTE PUBLICO,RIVADAVIA AV. 10900,AVENIDA,9,-34.63931792,-58.51739138
2021-0043,2021-05-22,18,FATAL,M,50,PEATON,AUTOMOVIL,"ALBERDI, JUAN BAUTISTA AV. y PILAR",AVENIDA,9,-34.65556223,-58.50719962
2021-0044,2021-05-25,2,FATAL,M,21,MOTO,OTRO,"PERON, EVA AV. y ACOSTA, MARIANO",AVENIDA,9,-34.64600222,-58.46712311
2021-0045,2021-05-26,17,FATAL,M,22,MOTO,OTRO,AUTOPISTA 1 SUR PRESIDENTE ARTURO FRONDIZI y SUAREZ AV.,AUTOPISTA,4,-34.64035082,-58.37709334
2021-0046,2021-05-31,2,FATAL,M,20,AUTOMOVIL,OTRO,ELCANO AV. y GUZMAN AV.,AVENIDA,15,-34.58569883,-58.46033141
2021-0047,2021-06-02,16,FATAL,M,59,MOTO,AUTOMOVIL,"VEDIA, AGUSTIN DE y RABANAL, FRANCISCO, INTENDENTE AV.",AVENIDA,4,-34.65633192,-58.42190745
2021-0048,2021-06-03,9,FATAL,M,44,BICICLETA,AUTOMOVIL,CAPDEVILA y CONGRESO AV.,AVENIDA,12,-34.56981410,-58.49026573
2021-0049,2021-06-03,20,FATAL,M,74,AUTOMOVIL,AUTOMOVIL,"FERNANDEZ DE LA CRUZ, F., GRAL. AV. 4000",AVENIDA,8,-34.66902702,-58.45410344
2021-0050,2021-06-10,13,FATAL,M,56,MOTO,TRANSPORTE PUBLICO,DEL LIBERTADOR AV. 5958,AVENIDA,13,-34.55719892,-58.44751621
2021-0051,2021-06-15,19,FATAL,M,73,PEATON,TRANSPORTE PUBLICO,27 DE FEBRERO AV. y EREZCANO AV.,AVENIDA,4,-34.66005171,-58.42040352
2021-0052,2021-06-20,5,FATAL,F,19,MOTO,OTRO,"PAZ, GRAL. AV. 14723",GRAL PAZ,8,-34.68010798,-58.49530249
2021-0053,2021-06-20,12,FATAL,M,58,PEATON,BICICLETA,CORRIENTES AV. 5783,AVENIDA,15,-34.59477360,-58.44399875
2021-0054,2021-06-22,14,FATAL,M,41,MOTO,TRANSPORTE PUBLICO,TABARE y EREZCANO,CALLE,4,-34.65463857,-58.42759813
2021-0055,2021-06-29,12,FATAL,M,47,MOTO,TRANSPORTE PUBLICO,CORRIENTES AV. y PUEYRREDON AV.,AVENIDA,3,-34.60456293,-58.40547222
2021-0056,2021-07-09,23,FATAL,M,60,BICICLETA,AUTOMOVIL,"CORRALES y MORENO, PERITO AV.",AVENIDA,4,-34.65008280,-58.42473018
2021-0057,2021-07-10,23,FATAL,M,46,AUTOMOVIL,OTRO,AUTOPISTA  ARTURO ILLIA (CABINA DE PEAJE),AUTOPISTA,2,-34.57563957,-58.39257023
2021-0058,2021-07-21,0,FATAL,M,24,PEATON,AUTOMOVIL,"PAZ, GRAL. AV. y VEDIA",GRAL PAZ,12,-34.54596153,-58.48941042
2021-0059,2021-07-22,1,FATAL,F,44,AUTOMOVIL,OTRO,"GARAY, JUAN DE AV. 2269",AVENIDA,3,-34.62783085,-58.39640740
2021-0060,2021-07-22,12,FATAL,F,80,PEATON,TRANSPORTE PUBLICO,"SALGUERO, JERONIMO y RIVADAVIA AV.",AVENIDA,5,-34.61112240,-58.41971993
2021-0061,2021-07-24,9,FATAL,F,55,PEATON,TRANSPORTE PUBLICO,"MORENO, PERITO AV. y ALCORTA, AMANCIO AV.",AVENIDA,4,-34.65012801,-58.40544588
2021-0062,2021-07-27,7,FATAL,M,73,AUTOMOVIL,TRANSPORTE PUBLICO,LA PLATA AV. 2723,AVENIDA,4,-34.64645957,-58.42003882
2021-0063,2021-08-02,4,FATAL,F,31,AUTOMOVIL,AUTOMOVIL,"ALBERDI, JUAN BAUTISTA AV. 2906",AVENIDA,7,-34.63348678,-58.46851293
2021-0064,2021-08-02,20,FATAL,M,37,PEATON,TRANSPORTE PUBLICO,"PAZ, GRAL. AV. y TONELERO",GRAL PAZ,9,-34.65422917,-58.52931141
2021-0065,2021-08-06,8,FATAL,F,63,PEATON,TRANSPORTE PUBLICO,SAN JUAN AV. y LA PLATA AV.,AVENIDA,6,-34.62699730,-58.42675754
2021-0066,2021-08-06,20,FATAL,M,59,PEATON,TRANSPORTE PUBLICO,"LOPE DE VEGA AV. y PAZ, GRAL. AV.",AVENIDA,11,-34.61098186,-58.52933723
2021-0067,2021-08-08,9,FATAL,M,27,MOTO,OTRO,AUTOPISTA 1 SUR PRESIDENTE ARTURO FRONDIZI y BRASIL,AUTOPISTA,1,-34.62764718,-58.37910943
2021-0068,2021-08-15,6,FATAL,M,39,MOTO,OTRO,"BEIRO, FRANCISCO AV. 5071",AVENIDA,11,-34.61164474,-58.52161176
2021-0069,2021-08-20,17,FATAL,M,17,PEATON,AUTOMOVIL,SANTA FE AV. 3428,AVENIDA,14,-34.58697680,-58.41354692
2021-0070,2021-08-28,8,FATAL,M,31,MOTO,TRANSPORTE PUBLICO,"CHILAVERT, MARTINIANO, CORONEL y VARELA AV.",AVENIDA,8,-34.65470804,-58.43960781
2021-0071,2021-08-31,16,FATAL,M,88,PEATON,MOTO,SAN LUIS 2730,CALLE,3,-34.60003693,-58.40454610
2021-0072,2021-09-01,19,FATAL,F,57,PEATON,AUTOMOVIL,CALLAO AV. y PARAGUAY,AVENIDA,2,-34.59871111,-58.39303911
2021-0073,2021-09-18,12,FATAL,F,76,BICICLETA,AUTOMOVIL,"DEL LIBERTADOR AV. y AGOTE, LUIS DR.",AVENIDA,2,-34.58405348,-58.39391034
2021-0074,2021-09-20,15,FATAL,M,55,MOTO,OTRO,"PAZ, GRAL. AV. y BALBIN, RICARDO, DR. AV.",GRAL PAZ,12,-34.54979510,-58.50073810
2021-0075,2021-09-21,14,FATAL,M,65,PEATON,TRANSPORTE PUBLICO,SALTA y BRASIL,CALLE,1,-34.62786038,-58.38281301
2021-0076,2021-10-16,6,FATAL,M,31,MOTO,OTRO,"MORENO, PERITO AV. 2152",AVENIDA,7,-34.65094083,-58.43980799
2021-0077,2021-10-18,7,FATAL,F,31,MOTO,TRANSPORTE PUBLICO,DIRECTORIO AV. 1169,AVENIDA,6,-34.62933109,-58.44402387
2021-0078,2021-10-23,6,FATAL,M,22,MOTO,TRANSPORTE PUBLICO,INDEPENDENCIA AV. y LA PLATA AV.,AVENIDA,6,-34.62207347,-58.42779702
2021-0079,2021-10-25,3,FATAL,M,23,PEATON,AUTOMOVIL,TUCUMAN 3112,CALLE,3,-34.60097942,-58.40944147
2021-0080,2021-10-28,16,FATAL,M,32,MOTO,AUTOMOVIL,ARENALES y 9 DE JULIO AV.,AVENIDA,1,-34.59430160,-58.38277479
2021-0081,2021-11-02,13,FATAL,M,26,MOTO,TRANSPORTE PUBLICO,AUTOPISTA 1 SUR PRESIDENTE ARTURO FRONDIZI y BRANDSEN,AUTOPISTA,4,-34.63800916,-58.37627355
2021-0082,2021-11-06,4,FATAL,M,38,MOTO,AUTOMOVIL,AUTOPISTA 25 DE MAYO y PASCO,AUTOPISTA,3,-34.62453459,-58.39591856
2021-0083,2021-11-09,0,FATAL,M,30,MOTO,AUTOMOVIL,CABILDO AV. y OLAZABAL,AVENIDA,13,-34.56015762,-58.45829717
2021-0084,2021-11-11,3,FATAL,M,32,AUTOMOVIL,OTRO,TAPALQUE y BRUIX AV.,AVENIDA,9,-34.64584795,-58.49142611
2021-0085,2021-11-20,18,FATAL,M,49,MOTO,OTRO,"PAZ, GRAL. AV. y EZEIZA",GRAL PAZ,12,-34.57786555,-58.51271409
2021-0086,2021-11-25,10,FATAL,M,75,PEATON,TRANSPORTE PUBLICO,RIVADAVIA AV. y PUAN,AVENIDA,6,-34.62352826,-58.44864864
2021-0087,2021-11-27,11,FATAL,F,73,PEATON,BICICLETA,ESMERALDA 1359,CALLE,1,-34.59167894,-58.37795815
2021-0088,2021-12-01,15,FATAL,M,45,MOTO,AUTOMOVIL,MONROE y 3 DE FEBRERO,CALLE,13,-34.55555257,-58.45531707
2021-0089,2021-12-02,1,FATAL,M,41,MOTO,AUTOMOVIL,GAONA AV. 3655,AVENIDA,11,-34.62140594,-58.47633683
2021-0090,2021-12-10,11,FATAL,M,73,PEATON,TRANSPORTE PUBLICO,9 DE JULIO AV. y LAVALLE,AVENIDA,1,-34.60256036,-58.38188582
2021-0091,2021-12-11,23,FATAL,M,24,MOTO,AUTOMOVIL,"BAIGORRIA y HUGO, VICTOR",CALLE,10,-34.62284918,-58.51989389
2021-0092,2021-12-12,6,FATAL,F,50,PEATON,AUTOMOVIL,RIVADAVIA AV. y PUEYRREDON AV.,AVENIDA,3,-34.61011987,-58.40596860
2021-0093,2021-12-13,17,FATAL,F,18,MOTO,AUTOMOVIL,RIESTRA AV. y MOM,AVENIDA,7,-34.64561636,-58.43353773
2021-0094,2021-12-20,1,FATAL,F,43,MOTO,AUTOMOVIL,"DELLEPIANE, LUIS, TTE. GRAL. y LACARRA AV.",AUTOPISTA,9,-34.65117757,-58.46739825
2021-0095,2021-12-30,0,FATAL,M,27,MOTO,TRANSPORTE PUBLICO,GAONA AV. y TERRADA,AVENIDA,11,-34.61984745,-58.47293407
2021-0096,2021-12-15,10,FATAL,M,60,AUTOMOVIL,TRANSPORTE PUBLICO,"PERON, EVA AV. 4071",AVENIDA,9,-34.65021673,-58.47066794
2021-0097,2021-11-18,6,FATAL,M,53,BICICLETA,AUTOMOVIL,PADRE CARLOS MUGICA 709,CALLE,1,-34.58679619,-58.37976155
LC-2019-0000179,2019-01-01,9,LEVE - SIN LESIONES,M,38,BICICLETA,SD,SD,SD,14,-34.559658,-58.408911
LC-2019-0000053,2019-01-01,1,LEVE - SIN LESIONES,M,57,AUTOMOVIL,SD,SD,SD,8,-34.669125,-58.44351
LC-2019-0000063,2019-01-01,2,LEVE - SIN LESIONES,M,28,SD,SD,SD,SD,8,-34.677556,-58.468335
LC-2019-0000079,2019-01-01,2,LEVE - SIN LESIONES,M,32,PEATON,MOTO,SD,SD,7,-34.647349,-58.437425
LC-2019-0000082,2019-01-01,4,LEVE - SIN LESIONES,M,45,AUTOMOVIL,TRANSPORTE PUBLICO,SD,SD,3,-34.604579,-58.398225
LC-2019-0000082,2019-01-01,4,LEVE - SIN LESIONES,F,45,AUTOMOVIL,TRANSPORTE PUBLICO,SD,SD,3,-34.604579,-58.398225
LC-2019-0000082,2019-01-01,4,LEVE - SIN LESIONES,M,27,AUTOMOVIL,TRANSPORTE PUBLICO,SD,SD,3,-34.604579,-58.398225
LC-2019-0000082,2019-01-01,4,LEVE - SIN LESIONES,F,32,AUTOMOVIL,TRANSPORTE PUBLICO,SD,SD,3,-34.604579,-58.398225
LC-2019-0000136,2019-01-01,8,LEVE - SIN LESIONES,M,21,MOTO,SD,SD,SD,15,-34.588108,-58.439392
LC-2019-0000136,2019-01-01,8,LEVE - SIN LESIONES,F,21,MOTO,SD,SD,SD,15,-34.588108,-58.439392
LC-2019-0000142,2019-01-01,7,LEVE - SIN LESIONES,M,37,MOTO,SD,SD,SD,11,-34.589282,-58.519116
LC-2019-0000194,2019-01-01,7,LEVE - SIN LESIONES,F,33,AUTOMOVIL,SD,SD,SD,9,-34.650156,-58.528413
LC-2019-0000202,2019-01-01,9,LEVE - SIN LESIONES,M,25,MOTO,BICICLETA,SD,SD,1,-34.598416,-58.371488
LC-2019-0000329,2019-01-01,12,LEVE - SIN LESIONES,M,23,AUTOMOVIL,SD,SD,SD,4,-34.648387,-58.404748
LC-2019-0000347,2019-01-01,12,LEVE - SIN LESIONES,M,40,AUTOMOVIL,SD,SD,SD,7,-34.649498,-58.442125
LC-2019-0000445,2019-01-01,13,LEVE - SIN LESIONES,M,42,AUTOMOVIL,SD,SD,SD,11,-34.603255,-58.524662
LC-2019-0000445,2019-01-01,13,LEVE - SIN LESIONES,F,42,AUTOMOVIL,SD,SD,SD,11,-34.603255,-58.524662
LC-2019-0000445,2019-01-01,13,LEVE - SIN LESIONES,M,37,AUTOMOVIL,SD,SD,SD,11,-34.603255,-58.524662
LC-2019-0000493,2019-01-01,13,LEVE - SIN LESIONES,M,53,TRANSPORTE PUBLICO,SD,SD,SD,4,-34.651461,-58.376137
LC-2019-0000600,2019-01-01,19,LEVE - SIN LESIONES,F,1,TRANSPORTE PUBLICO,SD,SD,SD,1,-34.591108,-58.374154
LC-2019-0000636,2019-01-01,18,LEVE - SIN LESIONES,F,62,AUTOMOVIL,MOTO,SD,SD,9,-34.654463,-58.505709
LC-2019-0000647,2019-01-01,18,LEVE - SIN LESIONES,M,47,MOTO,SD,SD,SD,12,-34.583403,-58.490436
LC-2019-0000686,2019-01-01,21,LEVE - SIN LESIONES,F,67,AUTOMOVIL,MOTO,SD,SD,9,-34.661307,-58.512313
LC-2019-0005235,2019-01-01,3,LEVE - SIN LESIONES,F,75,SD,SD,SD,SD,2,-34.598285,-58.399038
LC-2019-0002218,2019-01-02,15,LEVE - SIN LESIONES,M,52,BICICLETA,SD,SD,SD,1,-34.604635,-58.373748
LC-2019-0000928,2019-01-02,7,LEVE - SIN LESIONES,F,40,MOTO,BICICLETA,SD,SD,5,SD,SD
LC-2019-0000963,2019-01-02,8,LEVE - SIN LESIONES,F,48,TRANSPORTE PUBLICO,SD,SD,SD,6,-34.622984,-58.447266
LC-2019-0000963,2019-01-02,8,LEVE - SIN LESIONES,M,48,TRANSPORTE PUBLICO,SD,SD,SD,6,-34.622984,-58.447266
LC-2019-0000963,2019-01-02,8,LEVE - SIN LESIONES,F,27,TRANSPORTE PUBLICO,SD,SD,SD,6,-34.622984,-58.447266
LC-2019-0000963,2019-01-02,8,LEVE - SIN LESIONES,F,3,TRANSPORTE PUBLICO,SD,SD,SD,6,-34.622984,-58.447266
LC-2019-0000963,2019-01-02,8,LEVE - SIN LESIONES,F,33,TRANSPORTE PUBLICO,SD,SD,SD,6,-34.622984,-58.447266
LC-2019-0001754,2019-01-02,12,LEVE - SIN LESIONES,F,49,AUTOMOVIL,SD,SD,SD,5,-34.620858,-58.415098
LC-2019-0001879,2019-01-02,13,LEVE - SIN LESIONES,M,28,SD,SD,SD,SD,1,-34.596132,-58.37226
LC-2019-0001948,2019-01-02,12,LEVE - SIN LESIONES,M,46,PEATON,TRANSPORTE PUBLICO,SD,SD,14,-34.567927,-58.448666
LC-2019-0001987,2019-01-02,13,LEVE - SIN LESIONES,M,50,MOTO,BICICLETA,SD,SD,13,-34.552719,-58.468124
LC-2019-0001992,2019-01-02,14,LEVE - SIN LESIONES,M,34,MOTO,SD,SD,SD,1,-34.596132,-58.37226
LC-2019-0002083,2019-01-02,5,LEVE - SIN LESIONES,M,27,SD,SD,SD,SD,13,-34.53838,-58.474535
LC-2019-0002208,2019-01-02,15,LEVE - SIN LESIONES,M,34,MOTO,SD,SD,SD,4,-34.638178,-58.398009
LC-2019-0002740,2019-01-02,17,LEVE - SIN LESIONES,M,44,SD,SD,SD,SD,8,-34.690814,-58.464704
LC-2019-0003220,2019-01-02,19,LEVE - SIN LESIONES,F,28,MOTO,TRANSPORTE PUBLICO,SD,SD,3,-34.609275,-58.39338
LC-2019-0003220,2019-01-02,19,LEVE - SIN LESIONES,M,28,MOTO,TRANSPORTE PUBLICO,SD,SD,3,-34.609275,-58.39338
LC-2019-0003340,2019-01-02,23,LEVE - SIN LESIONES,M,46,SD,SD,SD,SD,1,-34.606522,-58.370261
LC-2019-0005610,2019-01-02,7,LEVE - SIN LESIONES,M,59,AUTOMOVIL,SD,SD,SD,1,-34.590127,-58.373281
LC-2019-0020183,2019-01-02,15,LEVE - SIN LESIONES,M,50,SD,SD,SD,SD,11,-34.612442,-58.461782
LC-2019-0022496,2019-01-02,10,LEVE - SIN LESIONES,M,73,SD,SD,SD,SD,4,SD,SD
LC-2019-0003428,2019-01-03,2,LEVE - SIN LESIONES,M,45,MOTO,SD,SD,SD,1,-34.606522,-58.370261
LC-2019-0003432,2019-01-03,2,LEVE - SIN LESIONES,M,27,SD,SD,SD,SD,4,-34.633619,-58.370256
LC-2019-0003642,2019-01-03,8,LEVE - SIN LESIONES,M,51,MOTO,SD,SD,SD,4,-34.651172,-58.389014
LC-2019-0003787,2019-01-03,16,LEVE - SIN LESIONES,M,48,MOTO,SD,SD,SD,10,-34.620214,-58.516946
LC-2019-0003862,2019-01-03,9,LEVE - SIN LESIONES,F,37,SD,SD,SD,SD,14,-34.587788,-58.420172
LC-2019-0003862,2019-01-03,9,LEVE - SIN LESIONES,M,37,SD,SD,SD,SD,14,-34.587788,-58.420172
LC-2019-0003884,2019-01-03,9,LEVE - SIN LESIONES,F,23,SD,SD,SD,SD,1,-34.624434,-58.374037
LC-2019-0004144,2019-01-03,11,LEVE - SIN LESIONES,M,16,MOTO,BICICLETA,SD,SD,13,-34.572009,-58.458802
LC-2019-0004229,2019-01-03,12,LEVE - SIN LESIONES,F,43,TRANSPORTE PUBLICO,SD,SD,SD,2,-34.598087,-58.409433
LC-2019-0004442,2019-01-03,11,LEVE - SIN LESIONES,F,38,MOTO,SD,SD,SD,12,-34.560095,-58.471429
LC-2019-0004442,2019-01-03,11,LEVE - SIN LESIONES,M,38,MOTO,SD,SD,SD,12,-34.560095,-58.471429
LC-2019-0004565,2019-01-03,13,LEVE - SIN LESIONES,F,47,SD,SD,SD,SD,10,-34.634383,-58.502861
LC-2019-0004621,2019-01-03,13,LEVE - SIN LESIONES,M,33,MOTO,TRANSPORTE PUBLICO,SD,SD,3,-34.61544,-58.402885
LC-2019-0004622,2019-01-03,14,LEVE - SIN LESIONES,F,31,AUTOMOVIL,SD,SD,SD,12,-34.547957,-58.49491
LC-2019-0004652,2019-01-03,14,LEVE - SIN LESIONES,M,28,MOTO,TRANSPORTE PUBLICO,SD,SD,15,-34.605272,-58.455131
LC-2019-0004717,2019-01-03,12,LEVE - SIN LESIONES,M,45,MOTO,SD,SD,SD,12,-34.556424,-58.480138
LC-2019-0004718,2019-01-03,12,LEVE - SIN LESIONES,M,51,TRANSPORTE PUBLICO,SD,SD,SD,4,-34.648017,-58.403486
LC-2019-0005334,2019-01-03,16,LEVE - SIN LESIONES,M,33,SD,SD,SD,SD,9,-34.66058,-58.514805
LC-2019-0005614,2019-01-03,11,LEVE - SIN LESIONES,M,43,SD,SD,SD,SD,3,-34.606091,-58.411121
LC-2019-0005622,2019-01-03,18,LEVE - SIN LESIONES,F,64,TRANSPORTE PUBLICO,SD,SD,SD,9,-34.650495,-58.5013
LC-2019-0005638,2019-01-03,19,LEVE - SIN LESIONES,M,36,SD,SD,SD,SD,5,-34.637644,-58.419078
LC-2019-0005638,2019-01-03,19,LEVE - SIN LESIONES,F,36,SD,SD,SD,SD,5,-34.637644,-58.419078
LC-2019-0005647,2019-01-03,19,LEVE - SIN LESIONES,M,45,SD,SD,SD,SD,1,-34.596726,-58.38184
LC-2019-0005681,2019-01-03,18,LEVE - SIN LESIONES,F,22,MOTO,SD,SD,SD,12,-34.543295,-58.473539
LC-2019-0005764,2019-01-03,20,LEVE - SIN LESIONES,M,84,PEATON,SD,SD,SD,15,-34.591985,-58.495341
LC-2019-0005815,2019-01-03,20,LEVE - SIN LESIONES,M,22,MOTO,SD,SD,SD,10,-34.640477,-58.486064
LC-2019-0005979,2019-01-03,21,LEVE - SIN LESIONES,M,26,MOTO,SD,SD,SD,7,-34.615899,-58.4585
LC-2019-0007021,2019-01-04,10,LEVE - SIN LESIONES,M,34,BICICLETA,SD,SD,SD,13,-34.56181,-58.44917
LC-2019-0007536,2019-01-04,13,LEVE - SIN LESIONES,F,28,BICICLETA,SD,SD,SD,12,-34.567724,-58.505206
LC-2019-0006068,2019-01-04,2,LEVE - SIN LESIONES,F,20,MOTO,SD,SD,SD,3,-34.617325,-58.39763
LC-2019-0006068,2019-01-04,2,LEVE - SIN LESIONES,M,20,MOTO,SD,SD,SD,3,-34.617325,-58.39763
LC-2019-0006306,2019-01-04,8,LEVE - SIN LESIONES,M,22,MOTO,SD,SD,SD,3,-34.620021,-58.409257
LC-2019-0006547,2019-01-04,2,LEVE - SIN LESIONES,M,38,PEATON,SD,SD,SD,9,-34.673463,-58.500852
LC-2019-0006638,2019-01-04,9,LEVE - SIN LESIONES,M,37,MOTO,SD,SD,SD,10,-34.636075,-58.496239
LC-2019-0006638,2019-01-04,9,LEVE - SIN LESIONES,M,37,MOTO,SD,SD,SD,10,-34.636075,-58.496239
LC-2019-0006659,2019-01-04,9,LEVE - SIN LESIONES,M,48,AUTOMOVIL,SD,SD,SD,12,-34.584012,-58.512465
LC-2019-0006789,2019-01-04,11,LEVE - SIN LESIONES,F,5,SD,SD,SD,SD,13,-34.551161,-58.440762
LC-2019-0006837,2019-01-04,10,LEVE - SIN LESIONES,F,49,PEATON,SD,SD,SD,1,-34.619382,-58.371576
LC-2019-0006857,2019-01-04,9,LEVE - SIN LESIONES,F,37,PEATON,MOTO,SD,SD,12,-34.573907,-58.50378
LC-2019-0007002,2019-01-04,11,LEVE - SIN LESIONES,M,20,SD,SD,SD,SD,9,-34.657353,-58.498813
LC-2019-0007187,2019-01-04,12,LEVE - SIN LESIONES,M,44,MOTO,SD,SD,SD,11,-34.611405,-58.486836
LC-2019-0007294,2019-01-04,12,LEVE - SIN LESIONES,M,39,MOTO,SD,SD,SD,15,-34.579471,-58.467221
LC-2019-0007336,2019-01-04,14,LEVE - SIN LESIONES,M,26,AUTOMOVIL,SD,SD,SD,9,-34.649672,-58.469778
LC-2019-0007634,2019-01-04,14,LEVE - SIN LESIONES,M,41,MOTO,SD,SD,SD,SD,SD,SD
LC-2019-0007660,2019-01-04,15,LEVE - SIN LESIONES,M,23,MOTO,TRANSPORTE PUBLICO,SD,SD,6,-34.620044,-58.432988
LC-2019-0007701,2019-01-04,16,LEVE - SIN LESIONES,M,34,MOTO,TRANSPORTE PUBLICO,SD,SD,4,-34.640305,-58.3743
LC-2019-0007778,2019-01-04,17,LEVE - SIN LESIONES,F,56,PEATON,SD,SD,SD,9,-34.64153,-58.514654
LC-2019-0008077,2019-01-04,16,LEVE - SIN LESIONES,F,44,MOTO,BICICLETA,SD,SD,15,-34.595179,-58.477241
LC-2019-0008227,2019-01-04,19,LEVE - SIN LESIONES,F,26,AUTOMOVIL,SD,SD,SD,5,-34.626664,-58.413443
LC-2019-0008238,2019-01-04,19,LEVE - SIN LESIONES,F,69,SD,SD,SD,SD,15,-34.590782,-58.479158
LC-2019-0008238,2019-01-04,19,LEVE - SIN LESIONES,F,69,SD,SD,SD,SD,15,-34.590782,-58.479158
LC-2019-0008283,2019-01-04,17,LEVE - SIN LESIONES,M,26,AUTOMOVIL,SD,SD,SD,SD,SD,SD
LC-2019-0008283,2019-01-04,17,LEVE - SIN LESIONES,F,26,AUTOMOVIL,SD,SD,SD,SD,SD,SD
LC-2019-0008314,2019-01-04,5,LEVE - SIN LESIONES,F,55,PEATON,TRANSPORTE PUBLICO,SD,SD,15,-34.58744,-58.453898
LC-2019-0008367,2019-01-04,20,LEVE - SIN LESIONES,M,46,MOTO,SD,SD,SD,6,-34.608879,-58.439337
LC-2019-0008388,2019-01-04,20,LEVE - SIN LESIONES,F,32,TRANSPORTE PUBLICO,SD,SD,SD,15,-34.585794,-58.454242
LC-2019-0008388,2019-01-04,20,LEVE - SIN LESIONES,F,27,TRANSPORTE PUBLICO,SD,SD,SD,15,-34.585794,-58.454242
LC-2019-0008388,2019-01-04,20,LEVE - SIN LESIONES,F,34,TRANSPORTE PUBLICO,SD,SD,SD,15,-34.585794,-58.454242
LC-2019-0008467,2019-01-04,22,LEVE - SIN LESIONES,M,29,MOTO,SD,SD,SD,10,-34.625715,-58.529911
LC-2019-0008493,2019-01-04,18,LEVE - SIN LESIONES,F,34,PEATON,SD,SD,SD,15,-34.584513,-58.444788
LC-2019-0008496,2019-01-04,22,LEVE - SIN LESIONES,M,25,PEATON,SD,SD,SD,13,-34.58028,-58.451299
LC-2019-0008565,2019-01-04,23,LEVE - SIN LESIONES,M,34,AUTOMOVIL,SD,SD,SD,4,-34.635687,-58.391554
LC-2019-0008566,2019-01-04,21,LEVE - SIN LESIONES,M,26,PEATON,TRANSPORTE PUBLICO,SD,SD,10,-34.617879,-58.514329
LC-2019-0011897,2019-01-04,15,LEVE - SIN LESIONES,F,38,TRANSPORTE PUBLICO,SD,SD,SD,3,-34.623778,-58.402176
LC-2019-0017883,2019-01-04,16,LEVE - SIN LESIONES,M,53,MOTO,SD,SD,SD,14,-34.597734,-58.421782
LC-2019-0020135,2019-01-04,22,LEVE - SIN LESIONES,M,23,SD,SD,SD,SD,8,-34.68688,-58.474577
LC-2019-0020930,2019-01-04,21,LEVE - SIN LESIONES,M,28,MOTO,SD,SD,SD,12,-34.560778,-58.4727
LC-2019-0267364,2019-01-04,14,LEVE - SIN LESIONES,M,41,MOTO,SD,SD,SD,3,-34.617043,-58.404144
LC-2019-0008974,2019-01-05,9,LEVE - SIN LESIONES,F,29,BICICLETA,SD,SD,SD,SD,SD,SD
LC-2019-0009312,2019-01-05,13,LEVE - SIN LESIONES,F,74,BICICLETA,MOTO,SD,SD,10,-34.636705,-58.5011
LC-2019-0052387,2019-01-05,23,LEVE - SIN LESIONES,M,27,BICICLETA,MOTO,SD,SD,3,-34.618887,-58.407935
LC-2019-0008603,2019-01-05,0,LEVE - SIN LESIONES,M,43,SD,SD,SD,SD,5,-34.610987,-58.416892
